Strategies/csv_stk/Chain2_Access_Data_1_sat_5_plane.csv

"Start Time (UTCG)","Stop Time (UTCG)","Duration (sec)","From Pass","To Pass","From Start Lat (deg)","From Start Lon (deg)","From Start Alt (km)","From Stop Lat (deg)","From Stop Lon (deg)","From Stop Alt (km)","To Start Lat (deg)","To Start Lon (deg)","To Start Alt (km)","To Stop Lat (deg)","To Stop Lon (deg)","To Stop Alt (km)","From Pass End","To Pass End","To Object","From Object","To Parent","From Parent"
20 Jan 2024 21:52:52.616,20 Jan 2024 22:03:21.109,628.493,"4","N/A",20.911,-87.997,552.705566,60.316,-90.622,566.109167,38.834,-104.821,1.814349,38.834,-104.821,1.814349,"4","N/A","To Place Colorado_Springs","From Satellite Satellite511","No Parent","No Parent"
20 Jan 2024 23:27:31.187,20 Jan 2024 23:39:23.421,712.234,"5","N/A",16.610,-111.722,551.734857,61.279,-114.698,566.416476,38.834,-104.821,1.814349,38.834,-104.821,1.814349,"5","N/A","To Place Colorado_Springs","From Satellite Satellite511","No Parent","No Parent"
21 Jan 2024 09:30:33.156,21 Jan 2024 09:39:37.148,543.992,"11","N/A",57.118,-82.893,565.046511,23.007,-85.166,553.244887,38.834,-104.821,1.814349,38.834,-104.821,1.814349,"11","N/A","To Place Colorado_Springs","From Satellite Satellite511","No Parent","No Parent"
21 Jan 2024 11:05:00.626,21 Jan 2024 11:17:12.294,731.668,"12","N/A",62.078,-106.572,566.666829,16.193,-109.629,551.651060,38.834,-104.821,1.814349,38.834,-104.821,1.814349,"12","N/A","To Place Colorado_Springs","From Satellite Satellite511","No Parent","No Parent"
21 Jan 2024 12:43:03.678,21 Jan 2024 12:48:31.138,327.460,"13","N/A",53.572,-131.152,563.805654,33.051,-132.520,556.325779,38.834,-104.821,1.814349,38.834,-104.821,1.814349,"13","N/A","To Place Colorado_Springs","From Satellite Satellite511","No Parent","No Parent"
21 Jan 2024 21:49:34.384,21 Jan 2024 22:00:05.248,630.864,"19","N/A",20.808,-88.154,552.680061,60.361,-90.790,566.123848,38.834,-104.821,1.814349,38.834,-104.821,1.814349,"19","N/A","To Place Colorado_Springs","From Satellite Satellite511","No Parent","No Parent"
21 Jan 2024 23:24:15.232,21 Jan 2024 23:36:06.378,711.147,"20","N/A",16.650,-111.889,551.742992,61.250,-114.860,566.407554,38.834,-104.821,1.814349,38.834,-104.821,1.814349,"20","N/A","To Place Colorado_Springs","From Satellite Satellite511","No Parent","No Parent"
22 Jan 2024 09:27:15.064,22 Jan 2024 09:36:22.825,547.762,"26","N/A",57.212,-83.051,565.078523,22.864,-85.340,553.206870,38.834,-104.821,1.814349,38.834,-104.821,1.814349,"26","N/A","To Place Colorado_Springs","From Satellite Satellite511","No Parent","No Parent"
22 Jan 2024 11:01:44.114,22 Jan 2024 11:13:55.279,731.165,"27","N/A",62.073,-106.737,566.665301,16.220,-109.792,551.656366,38.834,-104.821,1.814349,38.834,-104.821,1.814349,"27","N/A","To Place Colorado_Springs","From Satellite Satellite511","No Parent","No Parent"
22 Jan 2024 12:39:50.266,22 Jan 2024 12:45:09.862,319.597,"28","N/A",53.373,-131.330,563.734533,33.345,-132.665,556.426082,38.834,-104.821,1.814349,38.834,-104.821,1.814349,"28","N/A","To Place Colorado_Springs","From Satellite Satellite511","No Parent","No Parent"
22 Jan 2024 21:46:16.176,22 Jan 2024 21:56:49.380,633.204,"34","N/A",20.706,-88.311,552.655042,60.407,-90.957,566.138394,38.834,-104.821,1.814349,38.834,-104.821,1.814349,"34","N/A","To Place Colorado_Springs","From Satellite Satellite511","No Parent","No Parent"
22 Jan 2024 23:20:59.295,22 Jan 2024 23:32:49.322,710.026,"35","N/A",16.691,-112.056,551.751394,61.221,-115.023,566.398358,38.834,-104.821,1.814349,38.834,-104.821,1.814349,"35","N/A","To Place Colorado_Springs","From Satellite Satellite511","No Parent","No Parent"
23 Jan 2024 09:23:56.995,23 Jan 2024 09:33:08.473,551.478,"41","N/A",57.304,-83.209,565.109980,22.723,-85.513,553.169526,38.834,-104.821,1.814349,38.834,-104.821,1.814349,"41","N/A","To Place Colorado_Springs","From Satellite Satellite511","No Parent","No Parent"
23 Jan 2024 10:58:27.609,23 Jan 2024 11:10:38.246,730.637,"42","N/A",62.068,-106.901,566.663640,16.247,-109.954,551.661900,38.834,-104.821,1.814349,38.834,-104.821,1.814349,"42","N/A","To Place Colorado_Springs","From Satellite Satellite511","No Parent","No Parent"
23 Jan 2024 12:36:36.971,23 Jan 2024 12:41:48.461,311.490,"43","N/A",53.167,-131.508,563.660618,33.647,-132.809,556.529532,38.834,-104.821,1.814349,38.834,-104.821,1.814349,"43","N/A","To Place Colorado_Springs","From Satellite Satellite511","No Parent","No Parent"
23 Jan 2024 21:42:57.989,23 Jan 2024 21:53:33.499,635.510,"49","N/A",20.605,-88.469,552.630430,60.451,-91.124,566.152647,38.834,-104.821,1.814349,38.834,-104.821,1.814349,"49","N/A","To Place Colorado_Springs","From Satellite Satellite511","No Parent","No Parent"
23 Jan 2024 23:17:43.372,23 Jan 2024 23:29:32.256,708.884,"50","N/A",16.733,-112.223,551.759975,61.192,-115.185,566.388982,38.834,-104.821,1.814349,38.834,-104.821,1.814349,"50","N/A","To Place Colorado_Springs","From Satellite Satellite511","No Parent","No Parent"
24 Jan 2024 09:20:38.952,24 Jan 2024 09:29:54.087,555.135,"56","N/A",57.395,-83.367,565.140841,22.584,-85.687,553.132915,38.834,-104.821,1.814349,38.834,-104.821,1.814349,"56","N/A","To Place Colorado_Springs","From Satellite Satellite511","No Parent","No Parent"
24 Jan 2024 10:55:11.111,24 Jan 2024 11:07:21.200,730.089,"57","N/A",62.062,-107.066,566.661842,16.276,-110.116,551.667624,38.834,-104.821,1.814349,38.834,-104.821,1.814349,"57","N/A","To Place Colorado_Springs","From Satellite Satellite511","No Parent","No Parent"
24 Jan 2024 12:33:23.804,24 Jan 2024 12:38:26.921,303.117,"58","N/A",52.953,-131.686,563.583681,33.958,-132.953,556.636446,38.834,-104.821,1.814349,38.834,-104.821,1.814349,"58","N/A","To Place Colorado_Springs","From Satellite Satellite511","No Parent","No Parent"
24 Jan 2024 21:39:39.821,24 Jan 2024 21:50:17.605,637.785,"64","N/A",20.506,-88.627,552.606218,60.495,-91.291,566.166649,38.834,-104.821,1.814349,38.834,-104.821,1.814349,"64","N/A","To Place Colorado_Springs","From Satellite Satellite511","No Parent","No Parent"
24 Jan 2024 23:14:27.464,24 Jan 2024 23:26:15.182,707.717,"65","N/A",16.776,-112.390,551.768786,61.162,-115.347,566.379424,38.834,-104.821,1.814349,38.834,-104.821,1.814349,"65","N/A","To Place Colorado_Springs","From Satellite Satellite511","No Parent","No Parent"
25 Jan 2024 09:17:20.934,25 Jan 2024 09:26:39.669,558.735,"71","N/A",57.484,-83.525,565.171130,22.448,-85.860,553.097014,38.834,-104.821,1.814349,38.834,-104.821,1.814349,"71","N/A","To Place Colorado_Springs","From Satellite Satellite511","No Parent","No Parent"
25 Jan 2024 10:51:54.616,25 Jan 2024 11:04:04.134,729.518,"72","N/A",62.056,-107.231,566.659979,16.306,-110.279,551.673586,38.834,-104.821,1.814349,38.834,-104.821,1.814349,"72","N/A","To Place Colorado_Springs","From Satellite Satellite511","No Parent","No Parent"
25 Jan 2024 12:30:10.770,25 Jan 2024 12:35:05.234,294.464,"73","N/A",52.730,-131.865,563.503572,34.278,-133.095,556.747038,38.834,-104.821,1.814349,38.834,-104.821,1.814349,"73","N/A","To Place Colorado_Springs","From Satellite Satellite511","No Parent","No Parent"
25 Jan 2024 21:36:21.673,25 Jan 2024 21:47:01.699,640.026,"79","N/A",20.408,-88.784,552.582401,60.537,-91.459,566.180364,38.834,-104.821,1.814349,38.834,-104.821,1.814349,"79","N/A","To Place Colorado_Springs","From Satellite Satellite511","No Parent","No Parent"
25 Jan 2024 23:11:11.569,25 Jan 2024 23:22:58.098,706.529,"80","N/A",16.820,-112.557,551.777777,61.131,-115.509,566.369683,38.834,-104.821,1.814349,38.834,-104.821,1.814349,"80","N/A","To Place Colorado_Springs","From Satellite Satellite511","No Parent","No Parent"
26 Jan 2024 09:14:02.938,26 Jan 2024 09:23:25.219,562.281,"86","N/A",57.572,-83.684,565.200915,22.313,-86.033,553.061818,38.834,-104.821,1.814349,38.834,-104.821,1.814349,"86","N/A","To Place Colorado_Springs","From Satellite Satellite511","No Parent","No Parent"
26 Jan 2024 10:48:38.136,26 Jan 2024 11:00:47.063,728.926,"87","N/A",62.049,-107.395,566.657831,16.336,-110.441,551.679644,38.834,-104.821,1.814349,38.834,-104.821,1.814349,"87","N/A","To Place Colorado_Springs","From Satellite Satellite511","No Parent","No Parent"
26 Jan 2024 12:26:57.897,26 Jan 2024 12:31:43.386,285.489,"88","N/A",52.498,-132.045,563.419672,34.608,-133.238,556.861622,38.834,-104.821,1.814349,38.834,-104.821,1.814349,"88","N/A","To Place Colorado_Springs","From Satellite Satellite511","No Parent","No Parent"
26 Jan 2024 21:33:03.544,26 Jan 2024 21:43:45.784,642.240,"94","N/A",20.311,-88.942,552.558974,60.579,-91.626,566.193917,38.834,-104.821,1.814349,38.834,-104.821,1.814349,"94","N/A","To Place Colorado_Springs","From Satellite Satellite511","No Parent","No Parent"
26 Jan 2024 23:07:55.695,26 Jan 2024 23:19:41.006,705.311,"95","N/A",16.865,-112.724,551.787055,61.099,-115.671,566.359757,38.834,-104.821,1.814349,38.834,-104.821,1.814349,"95","N/A","To Place Colorado_Springs","From Satellite Satellite511","No Parent","No Parent"
27 Jan 2024 09:10:44.963,27 Jan 2024 09:20:10.738,565.775,"101","N/A",57.658,-83.842,565.230222,22.180,-86.206,553.027296,38.834,-104.821,1.814349,38.834,-104.821,1.814349,"101","N/A","To Place Colorado_Springs","From Satellite Satellite511","No Parent","No Parent"
27 Jan 2024 10:45:21.660,27 Jan 2024 10:57:29.972,728.313,"102","N/A",62.042,-107.560,566.655616,16.368,-110.603,551.685943,38.834,-104.821,1.814349,38.834,-104.821,1.814349,"102","N/A","To Place Colorado_Springs","From Satellite Satellite511","No Parent","No Parent"
27 Jan 2024 12:23:45.186,27 Jan 2024 12:28:21.363,276.178,"103","N/A",52.255,-132.225,563.331926,34.949,-133.379,556.980563,38.834,-104.821,1.814349,38.834,-104.821,1.814349,"103","N/A","To Place Colorado_Springs","From Satellite Satellite511","No Parent","No Parent"
27 Jan 2024 21:29:45.435,27 Jan 2024 21:40:29.857,644.422,"109","N/A",20.216,-89.100,552.535931,60.621,-91.793,566.207194,38.834,-104.821,1.814349,38.834,-104.821,1.814349,"109","N/A","To Place Colorado_Springs","From Satellite Satellite511","No Parent","No Parent"
27 Jan 2024 23:04:39.838,27 Jan 2024 23:16:23.905,704.067,"110","N/A",16.911,-112.892,551.796570,61.068,-115.834,566.349645,38.834,-104.821,1.814349,38.834,-104.821,1.814349,"110","N/A","To Place Colorado_Springs","From Satellite Satellite511","No Parent","No Parent"
28 Jan 2024 09:07:27.014,28 Jan 2024 09:16:56.228,569.214,"116","N/A",57.743,-84.001,565.258927,22.049,-86.379,552.993397,38.834,-104.821,1.814349,38.834,-104.821,1.814349,"116","N/A","To Place Colorado_Springs","From Satellite Satellite511","No Parent","No Parent"
28 Jan 2024 10:42:05.187,28 Jan 2024 10:54:12.864,727.677,"117","N/A",62.035,-107.725,566.653337,16.400,-110.765,551.692487,38.834,-104.821,1.814349,38.834,-104.821,1.814349,"117","N/A","To Place Colorado_Springs","From Satellite Satellite511","No Parent","No Parent"
28 Jan 2024 12:20:32.654,28 Jan 2024 12:24:59.147,266.493,"118","N/A",52.001,-132.406,563.239909,35.302,-133.520,557.104293,38.834,-104.821,1.814349,38.834,-104.821,1.814349,"118","N/A","To Place Colorado_Springs","From Satellite Satellite511","No Parent","No Parent"
28 Jan 2024 21:26:27.345,28 Jan 2024 21:37:13.916,646.572,"124","N/A",20.121,-89.258,552.513267,60.661,-91.960,566.220195,38.834,-104.821,1.814349,38.834,-104.821,1.814349,"124","N/A","To Place Colorado_Springs","From Satellite Satellite511","No Parent","No Parent"
28 Jan 2024 23:01:23.997,28 Jan 2024 23:13:06.795,702.798,"125","N/A",16.959,-113.059,551.806327,61.035,-115.996,566.339345,38.834,-104.821,1.814349,38.834,-104.821,1.814349,"125","N/A","To Place Colorado_Springs","From Satellite Satellite511","No Parent","No Parent"
29 Jan 2024 09:04:09.083,29 Jan 2024 09:13:41.687,572.604,"131","N/A",57.827,-84.159,565.287205,21.920,-86.552,552.960168,38.834,-104.821,1.814349,38.834,-104.821,1.814349,"131","N/A","To Place Colorado_Springs","From Satellite Satellite511","No Parent","No Parent"
29 Jan 2024 10:38:48.725,29 Jan 2024 10:50:55.745,727.020,"132","N/A",62.027,-107.889,566.650840,16.434,-110.927,551.699176,38.834,-104.821,1.814349,38.834,-104.821,1.814349,"132","N/A","To Place Colorado_Springs","From Satellite Satellite511","No Parent","No Parent"
29 Jan 2024 12:17:20.333,29 Jan 2024 12:21:36.715,256.382,"133","N/A",51.734,-132.589,563.142901,35.669,-133.660,557.233322,38.834,-104.821,1.814349,38.834,-104.821,1.814349,"133","N/A","To Place Colorado_Springs","From Satellite Satellite511","No Parent","No Parent"
29 Jan 2024 21:23:09.273,29 Jan 2024 21:33:57.966,648.693,"139","N/A",20.028,-89.416,552.490976,60.701,-92.127,566.232991,38.834,-104.821,1.814349,38.834,-104.821,1.814349,"139","N/A","To Place Colorado_Springs","From Satellite Satellite511","No Parent","No Parent"
29 Jan 2024 22:58:08.173,29 Jan 2024 23:09:49.675,701.503,"140","N/A",17.007,-113.227,551.816327,61.002,-116.158,566.328855,38.834,-104.821,1.814349,38.834,-104.821,1.814349,"140","N/A","To Place Colorado_Springs","From Satellite Satellite511","No Parent","No Parent"
30 Jan 2024 09:00:51.173,30 Jan 2024 09:10:27.114,575.942,"146","N/A",57.909,-84.318,565.315024,21.793,-86.725,552.927604,38.834,-104.821,1.814349,38.834,-104.821,1.814349,"146","N/A","To Place Colorado_Springs","From Satellite Satellite511","No Parent","No Parent"
30 Jan 2024 10:35:32.270,30 Jan 2024 10:47:38.615,726.345,"147","N/A",62.018,-108.054,566.648202,16.468,-111.089,551.706018,38.834,-104.821,1.814349,38.834,-104.821,1.814349,"147","N/A","To Place Colorado_Springs","From Satellite Satellite511","No Parent","No Parent"
30 Jan 2024 12:14:08.244,30 Jan 2024 12:18:14.043,245.799,"148","N/A",51.452,-132.772,563.040391,36.051,-133.799,557.368270,38.834,-104.821,1.814349,38.834,-104.821,1.814349,"148","N/A","To Place Colorado_Springs","From Satellite Satellite511","No Parent","No Parent"
30 Jan 2024 21:19:51.221,30 Jan 2024 21:30:42.005,650.784,"154","N/A",19.936,-89.574,552.469053,60.741,-92.294,566.245561,38.834,-104.821,1.814349,38.834,-104.821,1.814349,"154","N/A","To Place Colorado_Springs","From Satellite Satellite511","No Parent","No Parent"
30 Jan 2024 22:54:52.366,30 Jan 2024 23:06:32.544,700.178,"155","N/A",17.056,-113.394,551.826572,60.968,-116.320,566.318119,38.834,-104.821,1.814349,38.834,-104.821,1.814349,"155","N/A","To Place Colorado_Springs","From Satellite Satellite511","No Parent","No Parent"
31 Jan 2024 08:57:33.286,31 Jan 2024 09:07:12.510,579.224,"161","N/A",57.990,-84.477,565.342312,21.668,-86.897,552.895708,38.834,-104.821,1.814349,38.834,-104.821,1.814349,"161","N/A","To Place Colorado_Springs","From Satellite Satellite511","No Parent","No Parent"
31 Jan 2024 10:32:15.823,31 Jan 2024 10:44:21.467,725.644,"162","N/A",62.009,-108.219,566.645424,16.503,-111.251,551.713099,38.834,-104.821,1.814349,38.834,-104.821,1.814349,"162","N/A","To Place Colorado_Springs","From Satellite Satellite511","No Parent","No Parent"
31 Jan 2024 12:10:56.419,31 Jan 2024 12:14:51.093,234.674,"163","N/A",51.154,-132.956,562.931623,36.450,-133.936,557.510003,38.834,-104.821,1.814349,38.834,-104.821,1.814349,"163","N/A","To Place Colorado_Springs","From Satellite Satellite511","No Parent","No Parent"
31 Jan 2024 21:16:33.190,31 Jan 2024 21:27:26.035,652.845,"169","N/A",19.846,-89.733,552.447530,60.779,-92.460,566.257924,38.834,-104.821,1.814349,38.834,-104.821,1.814349,"169","N/A","To Place Colorado_Springs","From Satellite Satellite511","No Parent","No Parent"
31 Jan 2024 22:51:36.575,31 Jan 2024 23:03:15.409,698.833,"170","N/A",17.107,-113.562,551.837065,60.934,-116.482,566.307294,38.834,-104.821,1.814349,38.834,-104.821,1.814349,"170","N/A","To Place Colorado_Springs","From Satellite Satellite511","No Parent","No Parent"
1 Feb 2024 08:54:15.420,1 Feb 2024 09:03:57.881,582.462,"176","N/A",58.070,-84.636,565.369124,21.545,-87.070,552.864331,38.834,-104.821,1.814349,38.834,-104.821,1.814349,"176","N/A","To Place Colorado_Springs","From Satellite Satellite511","No Parent","No Parent"
1 Feb 2024 10:28:59.387,1 Feb 2024 10:41:04.305,724.918,"177","N/A",62.000,-108.384,566.642427,16.539,-111.413,551.720375,38.834,-104.821,1.814349,38.834,-104.821,1.814349,"177","N/A","To Place Colorado_Springs","From Satellite Satellite511","No Parent","No Parent"
1 Feb 2024 12:07:44.897,1 Feb 2024 12:11:27.835,222.938,"178","N/A",50.837,-133.141,562.815661,36.868,-134.073,557.659240,38.834,-104.821,1.814349,38.834,-104.821,1.814349,"178","N/A","To Place Colorado_Springs","From Satellite Satellite511","No Parent","No Parent"
1 Feb 2024 21:13:15.172,1 Feb 2024 21:24:10.051,654.879,"184","N/A",19.756,-89.891,552.426288,60.817,-92.627,566.270025,38.834,-104.821,1.814349,38.834,-104.821,1.814349,"184","N/A","To Place Colorado_Springs","From Satellite Satellite511","No Parent","No Parent"
1 Feb 2024 22:48:20.802,1 Feb 2024 22:59:58.258,697.456,"185","N/A",17.158,-113.729,551.847809,60.899,-116.644,566.296169,38.834,-104.821,1.814349,38.834,-104.821,1.814349,"185","N/A","To Place Colorado_Springs","From Satellite Satellite511","No Parent","No Parent"
2 Feb 2024 08:50:57.573,2 Feb 2024 09:00:43.219,585.646,"191","N/A",58.148,-84.795,565.395480,21.423,-87.242,552.833640,38.834,-104.821,1.814349,38.834,-104.821,1.814349,"191","N/A","To Place Colorado_Springs","From Satellite Satellite511","No Parent","No Parent"
2 Feb 2024 10:25:42.950,2 Feb 2024 10:37:47.127,724.177,"192","N/A",61.990,-108.549,566.639441,16.576,-111.575,551.727862,38.834,-104.821,1.814349,38.834,-104.821,1.814349,"192","N/A","To Place Colorado_Springs","From Satellite Satellite511","No Parent","No Parent"
2 Feb 2024 12:04:33.735,2 Feb 2024 12:08:04.216,210.481,"193","N/A",50.498,-133.328,562.691170,37.309,-134.208,557.817279,38.834,-104.821,1.814349,38.834,-104.821,1.814349,"193","N/A","To Place Colorado_Springs","From Satellite Satellite511","No Parent","No Parent"
2 Feb 2024 21:09:57.176,2 Feb 2024 21:20:54.057,656.881,"199","N/A",19.667,-90.049,552.405438,60.855,-92.794,566.281903,38.834,-104.821,1.814349,38.834,-104.821,1.814349,"199","N/A","To Place Colorado_Springs","From Satellite Satellite511","No Parent","No Parent"
2 Feb 2024 22:45:05.046,2 Feb 2024 22:56:41.100,696.054,"200","N/A",17.211,-113.897,551.858809,60.864,-116.805,566.284882,38.834,-104.821,1.814349,38.834,-104.821,1.814349,"200","N/A","To Place Colorado_Springs","From Satellite Satellite511","No Parent","No Parent"
3 Feb 2024 08:47:39.747,3 Feb 2024 08:57:28.531,588.784,"206","N/A",58.226,-84.954,565.421388,21.304,-87.414,552.803497,38.834,-104.821,1.814349,38.834,-104.821,1.814349,"206","N/A","To Place Colorado_Springs","From Satellite Satellite511","No Parent","No Parent"
3 Feb 2024 10:22:26.525,3 Feb 2024 10:34:29.935,723.411,"207","N/A",61.980,-108.714,566.636232,16.613,-111.736,551.735544,38.834,-104.821,1.814349,38.834,-104.821,1.814349,"207","N/A","To Place Colorado_Springs","From Satellite Satellite511","No Parent","No Parent"
3 Feb 2024 12:01:22.992,3 Feb 2024 12:04:40.160,197.168,"208","N/A",50.132,-133.517,562.556757,37.778,-134.341,557.985867,38.834,-104.821,1.814349,38.834,-104.821,1.814349,"208","N/A","To Place Colorado_Springs","From Satellite Satellite511","No Parent","No Parent"
3 Feb 2024 21:06:39.197,3 Feb 2024 21:17:38.052,658.855,"214","N/A",19.580,-90.208,552.384937,60.891,-92.961,566.293561,38.834,-104.821,1.814349,38.834,-104.821,1.814349,"214","N/A","To Place Colorado_Springs","From Satellite Satellite511","No Parent","No Parent"
3 Feb 2024 22:41:49.307,3 Feb 2024 22:53:23.935,694.628,"215","N/A",17.264,-114.065,551.870068,60.828,-116.967,566.273446,38.834,-104.821,1.814349,38.834,-104.821,1.814349,"215","N/A","To Place Colorado_Springs","From Satellite Satellite511","No Parent","No Parent"
4 Feb 2024 08:44:21.939,4 Feb 2024 08:54:13.815,591.876,"221","N/A",58.302,-85.113,565.446858,21.186,-87.586,552.773925,38.834,-104.821,1.814349,38.834,-104.821,1.814349,"221","N/A","To Place Colorado_Springs","From Satellite Satellite511","No Parent","No Parent"
4 Feb 2024 10:19:10.107,4 Feb 2024 10:31:12.729,722.622,"222","N/A",61.969,-108.879,566.632879,16.652,-111.898,551.743431,38.834,-104.821,1.814349,38.834,-104.821,1.814349,"222","N/A","To Place Colorado_Springs","From Satellite Satellite511","No Parent","No Parent"
4 Feb 2024 11:58:12.765,4 Feb 2024 12:01:15.578,182.812,"223","N/A",49.733,-133.708,562.410122,38.279,-134.471,558.167121,38.834,-104.821,1.814349,38.834,-104.821,1.814349,"223","N/A","To Place Colorado_Springs","From Satellite Satellite511","No Parent","No Parent"
4 Feb 2024 21:03:21.236,4 Feb 2024 21:14:22.032,660.795,"229","N/A",19.494,-90.366,552.364778,60.927,-93.127,566.304907,38.834,-104.821,1.814349,38.834,-104.821,1.814349,"229","N/A","To Place Colorado_Springs","From Satellite Satellite511","No Parent","No Parent"
4 Feb 2024 22:38:33.586,4 Feb 2024 22:50:06.757,693.172,"230","N/A",17.319,-114.233,551.881587,60.791,-117.129,566.261743,38.834,-104.821,1.814349,38.834,-104.821,1.814349,"230","N/A","To Place Colorado_Springs","From Satellite Satellite511","No Parent","No Parent"
5 Feb 2024 08:41:04.151,5 Feb 2024 08:50:59.072,594.921,"236","N/A",58.376,-85.272,565.471899,21.070,-87.758,552.744910,38.834,-104.821,1.814349,38.834,-104.821,1.814349,"236","N/A","To Place Colorado_Springs","From Satellite Satellite511","No Parent","No Parent"
5 Feb 2024 10:15:53.696,5 Feb 2024 10:27:55.507,721.812,"237","N/A",61.958,-109.044,566.629384,16.692,-112.060,551.751524,38.834,-104.821,1.814349,38.834,-104.821,1.814349,"237","N/A","To Place Colorado_Springs","From Satellite Satellite511","No Parent","No Parent"
5 Feb 2024 11:55:03.186,5 Feb 2024 11:57:50.331,167.145,"238","N/A",49.295,-133.901,562.248174,38.822,-134.600,558.364300,38.834,-104.821,1.814349,38.834,-104.821,1.814349,"238","N/A","To Place Colorado_Springs","From Satellite Satellite511","No Parent","No Parent"
5 Feb 2024 21:00:03.298,5 Feb 2024 21:11:06.010,662.712,"244","N/A",19.409,-90.525,552.345020,60.962,-93.294,566.316227,38.834,-104.821,1.814349,38.834,-104.821,1.814349,"244","N/A","To Place Colorado_Springs","From Satellite Satellite511","No Parent","No Parent"
5 Feb 2024 22:35:17.881,5 Feb 2024 22:46:49.571,691.690,"245","N/A",17.375,-114.401,551.893370,60.754,-117.291,566.249877,38.834,-104.821,1.814349,38.834,-104.821,1.814349,"245","N/A","To Place Colorado_Springs","From Satellite Satellite511","No Parent","No Parent"
6 Feb 2024 08:37:46.381,6 Feb 2024 08:47:44.302,597.921,"251","N/A",58.450,-85.432,565.496518,20.955,-87.930,552.716445,38.834,-104.821,1.814349,38.834,-104.821,1.814349,"251","N/A","To Place Colorado_Springs","From Satellite Satellite511","No Parent","No Parent"
6 Feb 2024 10:12:37.292,6 Feb 2024 10:24:38.271,720.979,"252","N/A",61.946,-109.209,566.625744,16.733,-112.221,551.759824,38.834,-104.821,1.814349,38.834,-104.821,1.814349,"252","N/A","To Place Colorado_Springs","From Satellite Satellite511","No Parent","No Parent"
6 Feb 2024 11:51:54.464,6 Feb 2024 11:54:24.226,149.762,"253","N/A",48.802,-134.098,562.065981,39.419,-134.724,558.582002,38.834,-104.821,1.814349,38.834,-104.821,1.814349,"253","N/A","To Place Colorado_Springs","From Satellite Satellite511","No Parent","No Parent"
6 Feb 2024 20:56:45.373,6 Feb 2024 21:07:49.974,664.601,"259","N/A",19.325,-90.683,552.325532,60.997,-93.460,566.327240,38.834,-104.821,1.814349,38.834,-104.821,1.814349,"259","N/A","To Place Colorado_Springs","From Satellite Satellite511","No Parent","No Parent"
6 Feb 2024 22:32:02.195,6 Feb 2024 22:43:32.374,690.179,"260","N/A",17.432,-114.569,551.905422,60.716,-117.453,566.237769,38.834,-104.821,1.814349,38.834,-104.821,1.814349,"260","N/A","To Place Colorado_Springs","From Satellite Satellite511","No Parent","No Parent"
7 Feb 2024 08:34:28.629,7 Feb 2024 08:44:29.505,600.876,"266","N/A",58.523,-85.591,565.520725,20.842,-88.102,552.688518,38.834,-104.821,1.814349,38.834,-104.821,1.814349,"266","N/A","To Place Colorado_Springs","From Satellite Satellite511","No Parent","No Parent"
7 Feb 2024 10:09:20.896,7 Feb 2024 10:21:21.020,720.124,"267","N/A",61.934,-109.374,566.621959,16.774,-112.383,551.768332,38.834,-104.821,1.814349,38.834,-104.821,1.814349,"267","N/A","To Place Colorado_Springs","From Satellite Satellite511","No Parent","No Parent"
7 Feb 2024 11:48:46.944,7 Feb 2024 11:50:56.910,129.965,"268","N/A",48.234,-134.300,561.855462,40.091,-134.843,558.828495,38.834,-104.821,1.814349,38.834,-104.821,1.814349,"268","N/A","To Place Colorado_Springs","From Satellite Satellite511","No Parent","No Parent"
7 Feb 2024 20:53:27.466,7 Feb 2024 21:04:33.926,666.459,"274","N/A",19.242,-90.842,552.306373,61.031,-93.627,566.338001,38.834,-104.821,1.814349,38.834,-104.821,1.814349,"274","N/A","To Place Colorado_Springs","From Satellite Satellite511","No Parent","No Parent"
7 Feb 2024 22:28:46.530,7 Feb 2024 22:40:15.167,688.637,"275","N/A",17.490,-114.737,551.917804,60.678,-117.614,566.225483,38.834,-104.821,1.814349,38.834,-104.821,1.814349,"275","N/A","To Place Colorado_Springs","From Satellite Satellite511","No Parent","No Parent"
8 Feb 2024 08:31:10.895,8 Feb 2024 08:41:14.683,603.788,"281","N/A",58.594,-85.751,565.544527,20.731,-88.273,552.661113,38.834,-104.821,1.814349,38.834,-104.821,1.814349,"281","N/A","To Place Colorado_Springs","From Satellite Satellite511","No Parent","No Parent"
8 Feb 2024 10:06:04.507,8 Feb 2024 10:18:03.754,719.247,"282","N/A",61.921,-109.539,566.618029,16.817,-112.544,551.777051,38.834,-104.821,1.814349,38.834,-104.821,1.814349,"282","N/A","To Place Colorado_Springs","From Satellite Satellite511","No Parent","No Parent"
8 Feb 2024 11:45:41.296,8 Feb 2024 11:47:27.718,106.423,"283","N/A",47.549,-134.510,561.600892,40.881,-134.955,559.119356,38.834,-104.821,1.814349,38.834,-104.821,1.814349,"283","N/A","To Place Colorado_Springs","From Satellite Satellite511","No Parent","No Parent"
8 Feb 2024 20:50:09.577,8 Feb 2024 21:01:17.868,668.292,"289","N/A",19.160,-91.001,552.287538,61.064,-93.793,566.348581,38.834,-104.821,1.814349,38.834,-104.821,1.814349,"289","N/A","To Place Colorado_Springs","From Satellite Satellite511","No Parent","No Parent"
8 Feb 2024 22:25:30.874,8 Feb 2024 22:36:57.949,687.075,"290","N/A",17.549,-114.905,551.930342,60.639,-117.776,566.212937,38.834,-104.821,1.814349,38.834,-104.821,1.814349,"290","N/A","To Place Colorado_Springs","From Satellite Satellite511","No Parent","No Parent"
9 Feb 2024 08:27:53.183,9 Feb 2024 08:37:59.834,606.651,"296","N/A",58.664,-85.910,565.567846,20.621,-88.445,552.634235,38.834,-104.821,1.814349,38.834,-104.821,1.814349,"296","N/A","To Place Colorado_Springs","From Satellite Satellite511","No Parent","No Parent"
9 Feb 2024 10:02:48.126,9 Feb 2024 10:14:46.473,718.347,"297","N/A",61.908,-109.704,566.613950,16.860,-112.705,551.785981,38.834,-104.821,1.814349,38.834,-104.821,1.814349,"297","N/A","To Place Colorado_Springs","From Satellite Satellite511","No Parent","No Parent"
9 Feb 2024 11:42:39.219,9 Feb 2024 11:43:54.940,75.720,"298","N/A",46.640,-134.735,561.262418,41.896,-135.052,559.494731,38.834,-104.821,1.814349,38.834,-104.821,1.814349,"298","N/A","To Place Colorado_Springs","From Satellite Satellite511","No Parent","No Parent"
9 Feb 2024 20:46:51.705,9 Feb 2024 20:58:01.801,670.097,"304","N/A",19.080,-91.160,552.269024,61.097,-93.960,566.358960,38.834,-104.821,1.814349,38.834,-104.821,1.814349,"304","N/A","To Place Colorado_Springs","From Satellite Satellite511","No Parent","No Parent"
9 Feb 2024 22:22:15.242,9 Feb 2024 22:33:40.727,685.485,"305","N/A",17.609,-115.073,551.943222,60.599,-117.937,566.200300,38.834,-104.821,1.814349,38.834,-104.821,1.814349,"305","N/A","To Place Colorado_Springs","From Satellite Satellite511","No Parent","No Parent"
10 Feb 2024 08:24:35.480,10 Feb 2024 08:34:44.961,609.481,"311","N/A",58.733,-86.070,565.590952,20.513,-88.616,552.607854,38.834,-104.821,1.814349,38.834,-104.821,1.814349,"311","N/A","To Place Colorado_Springs","From Satellite Satellite511","No Parent","No Parent"
10 Feb 2024 09:59:31.753,10 Feb 2024 10:11:29.178,717.425,"312","N/A",61.895,-109.869,566.609725,16.904,-112.867,551.795125,38.834,-104.821,1.814349,38.834,-104.821,1.814349,"312","N/A","To Place Colorado_Springs","From Satellite Satellite511","No Parent","No Parent"
10 Feb 2024 11:39:54.302,10 Feb 2024 11:40:04.984,10.683,"313","N/A",44.657,-135.032,560.522199,43.987,-135.076,560.272524,38.834,-104.821,1.814349,38.834,-104.821,1.814349,"313","N/A","To Place Colorado_Springs","From Satellite Satellite511","No Parent","No Parent"
10 Feb 2024 20:43:33.851,10 Feb 2024 20:54:45.726,671.876,"319","N/A",19.000,-91.319,552.250829,61.129,-94.126,566.369168,38.834,-104.821,1.814349,38.834,-104.821,1.814349,"319","N/A","To Place Colorado_Springs","From Satellite Satellite511","No Parent","No Parent"
10 Feb 2024 22:18:59.627,10 Feb 2024 22:30:23.489,683.863,"320","N/A",17.671,-115.242,551.956380,60.559,-118.099,566.187353,38.834,-104.821,1.814349,38.834,-104.821,1.814349,"320","N/A","To Place Colorado_Springs","From Satellite Satellite511","No Parent","No Parent"
11 Feb 2024 08:21:17.798,11 Feb 2024 08:31:30.064,612.266,"326","N/A",58.802,-86.229,565.613593,20.406,-88.788,552.581943,38.834,-104.821,1.814349,38.834,-104.821,1.814349,"326","N/A","To Place Colorado_Springs","From Satellite Satellite511","No Parent","No Parent"
11 Feb 2024 09:56:15.387,11 Feb 2024 10:08:11.868,716.481,"327","N/A",61.881,-110.034,566.605351,16.950,-113.028,551.804485,38.834,-104.821,1.814349,38.834,-104.821,1.814349,"327","N/A","To Place Colorado_Springs","From Satellite Satellite511","No Parent","No Parent"
11 Feb 2024 20:40:16.013,11 Feb 2024 20:51:29.645,673.632,"334","N/A",18.922,-91.478,552.232941,61.161,-94.293,566.379249,38.834,-104.821,1.814349,38.834,-104.821,1.814349,"334","N/A","To Place Colorado_Springs","From Satellite Satellite511","No Parent","No Parent"
11 Feb 2024 22:15:44.030,11 Feb 2024 22:27:06.239,682.209,"335","N/A",17.733,-115.410,551.969821,60.518,-118.261,566.174134,38.834,-104.821,1.814349,38.834,-104.821,1.814349,"335","N/A","To Place Colorado_Springs","From Satellite Satellite511","No Parent","No Parent"
12 Feb 2024 08:18:00.133,12 Feb 2024 08:28:15.141,615.008,"341","N/A",58.869,-86.389,565.635865,20.301,-88.959,552.556556,38.834,-104.821,1.814349,38.834,-104.821,1.814349,"341","N/A","To Place Colorado_Springs","From Satellite Satellite511","No Parent","No Parent"
12 Feb 2024 09:52:59.029,12 Feb 2024 10:04:54.543,715.513,"342","N/A",61.866,-110.199,566.600825,16.996,-113.189,551.814062,38.834,-104.821,1.814349,38.834,-104.821,1.814349,"342","N/A","To Place Colorado_Springs","From Satellite Satellite511","No Parent","No Parent"
12 Feb 2024 20:36:58.194,12 Feb 2024 20:48:13.551,675.357,"349","N/A",18.844,-91.637,552.215364,61.192,-94.459,566.389049,38.834,-104.821,1.814349,38.834,-104.821,1.814349,"349","N/A","To Place Colorado_Springs","From Satellite Satellite511","No Parent","No Parent"
12 Feb 2024 22:12:28.451,12 Feb 2024 22:23:48.981,680.530,"350","N/A",17.797,-115.578,551.983555,60.476,-118.422,566.160742,38.834,-104.821,1.814349,38.834,-104.821,1.814349,"350","N/A","To Place Colorado_Springs","From Satellite Satellite511","No Parent","No Parent"
13 Feb 2024 08:14:42.484,13 Feb 2024 08:25:00.193,617.709,"356","N/A",58.935,-86.549,565.657773,20.198,-89.130,552.531646,38.834,-104.821,1.814349,38.834,-104.821,1.814349,"356","N/A","To Place Colorado_Springs","From Satellite Satellite511","No Parent","No Parent"
13 Feb 2024 09:49:42.681,13 Feb 2024 10:01:37.202,714.522,"357","N/A",61.851,-110.365,566.596110,17.043,-113.350,551.823858,38.834,-104.821,1.814349,38.834,-104.821,1.814349,"357","N/A","To Place Colorado_Springs","From Satellite Satellite511","No Parent","No Parent"
13 Feb 2024 20:33:40.391,13 Feb 2024 20:44:57.446,677.055,"364","N/A",18.768,-91.796,552.198093,61.222,-94.625,566.398652,38.834,-104.821,1.814349,38.834,-104.821,1.814349,"364","N/A","To Place Colorado_Springs","From Satellite Satellite511","No Parent","No Parent"
13 Feb 2024 22:09:12.892,13 Feb 2024 22:20:31.712,678.821,"365","N/A",17.862,-115.747,551.997583,60.434,-118.583,566.147125,38.834,-104.821,1.814349,38.834,-104.821,1.814349,"365","N/A","To Place Colorado_Springs","From Satellite Satellite511","No Parent","No Parent"
14 Feb 2024 08:11:24.851,14 Feb 2024 08:21:45.221,620.370,"371","N/A",59.000,-86.709,565.679326,20.096,-89.301,552.507207,38.834,-104.821,1.814349,38.834,-104.821,1.814349,"371","N/A","To Place Colorado_Springs","From Satellite Satellite511","No Parent","No Parent"
14 Feb 2024 09:46:26.341,14 Feb 2024 09:58:19.847,713.506,"372","N/A",61.835,-110.530,566.591226,17.091,-113.511,551.833876,38.834,-104.821,1.814349,38.834,-104.821,1.814349,"372","N/A","To Place Colorado_Springs","From Satellite Satellite511","No Parent","No Parent"
14 Feb 2024 20:30:22.606,14 Feb 2024 20:41:41.332,678.726,"379","N/A",18.693,-91.955,552.181123,61.252,-94.792,566.408063,38.834,-104.821,1.814349,38.834,-104.821,1.814349,"379","N/A","To Place Colorado_Springs","From Satellite Satellite511","No Parent","No Parent"
14 Feb 2024 22:05:57.350,14 Feb 2024 22:17:14.433,677.083,"380","N/A",17.928,-115.916,552.011909,60.391,-118.745,566.133280,38.834,-104.821,1.814349,38.834,-104.821,1.814349,"380","N/A","To Place Colorado_Springs","From Satellite Satellite511","No Parent","No Parent"
15 Feb 2024 08:08:07.233,15 Feb 2024 08:18:30.220,622.987,"386","N/A",59.064,-86.869,565.700529,19.996,-89.472,552.483300,38.834,-104.821,1.814349,38.834,-104.821,1.814349,"386","N/A","To Place Colorado_Springs","From Satellite Satellite511","No Parent","No Parent"
15 Feb 2024 09:43:10.002,15 Feb 2024 09:55:02.477,712.475,"387","N/A",61.820,-110.695,566.586335,17.140,-113.672,551.844117,38.834,-104.821,1.814349,38.834,-104.821,1.814349,"387","N/A","To Place Colorado_Springs","From Satellite Satellite511","No Parent","No Parent"
15 Feb 2024 20:27:04.837,15 Feb 2024 20:38:25.209,680.372,"394","N/A",18.619,-92.115,552.164448,61.281,-94.958,566.417282,38.834,-104.821,1.814349,38.834,-104.821,1.814349,"394","N/A","To Place Colorado_Springs","From Satellite Satellite511","No Parent","No Parent"
15 Feb 2024 22:02:41.827,15 Feb 2024 22:13:57.142,675.315,"395","N/A",17.995,-116.084,552.026537,60.347,-118.906,566.119204,38.834,-104.821,1.814349,38.834,-104.821,1.814349,"395","N/A","To Place Colorado_Springs","From Satellite Satellite511","No Parent","No Parent"
16 Feb 2024 08:04:49.631,16 Feb 2024 08:15:15.201,625.570,"401","N/A",59.127,-87.029,565.721387,19.897,-89.643,552.459762,38.834,-104.821,1.814349,38.834,-104.821,1.814349,"401","N/A","To Place Colorado_Springs","From Satellite Satellite511","No Parent","No Parent"
16 Feb 2024 09:39:53.675,16 Feb 2024 09:51:45.091,711.417,"402","N/A",61.803,-110.861,566.581194,17.190,-113.833,551.854584,38.834,-104.821,1.814349,38.834,-104.821,1.814349,"402","N/A","To Place Colorado_Springs","From Satellite Satellite511","No Parent","No Parent"
16 Feb 2024 20:23:47.085,16 Feb 2024 20:35:09.076,681.992,"409","N/A",18.546,-92.274,552.148065,61.310,-95.124,566.426313,38.834,-104.821,1.814349,38.834,-104.821,1.814349,"409","N/A","To Place Colorado_Springs","From Satellite Satellite511","No Parent","No Parent"
16 Feb 2024 21:59:26.323,16 Feb 2024 22:10:39.841,673.517,"410","N/A",18.064,-116.253,552.041472,60.303,-119.067,566.104893,38.834,-104.821,1.814349,38.834,-104.821,1.814349,"410","N/A","To Place Colorado_Springs","From Satellite Satellite511","No Parent","No Parent"
17 Feb 2024 08:01:32.044,17 Feb 2024 08:12:00.160,628.116,"416","N/A",59.190,-87.189,565.741906,19.800,-89.813,552.436648,38.834,-104.821,1.814349,38.834,-104.821,1.814349,"416","N/A","To Place Colorado_Springs","From Satellite Satellite511","No Parent","No Parent"
17 Feb 2024 09:36:37.356,17 Feb 2024 09:48:27.687,710.331,"417","N/A",61.786,-111.026,566.575891,17.242,-113.994,551.865325,38.834,-104.821,1.814349,38.834,-104.821,1.814349,"417","N/A","To Place Colorado_Springs","From Satellite Satellite511","No Parent","No Parent"
17 Feb 2024 20:20:29.349,17 Feb 2024 20:31:52.934,683.585,"424","N/A",18.473,-92.434,552.131973,61.338,-95.290,566.435158,38.834,-104.821,1.814349,38.834,-104.821,1.814349,"424","N/A","To Place Colorado_Springs","From Satellite Satellite511","No Parent","No Parent"
17 Feb 2024 21:56:10.843,17 Feb 2024 22:07:22.530,671.688,"425","N/A",18.134,-116.422,552.056783,60.258,-119.229,566.090398,38.834,-104.821,1.814349,38.834,-104.821,1.814349,"425","N/A","To Place Colorado_Springs","From Satellite Satellite511","No Parent","No Parent"
18 Feb 2024 07:58:14.472,18 Feb 2024 08:08:45.094,630.622,"431","N/A",59.251,-87.349,565.762092,19.704,-89.984,552.413996,38.834,-104.821,1.814349,38.834,-104.821,1.814349,"431","N/A","To Place Colorado_Springs","From Satellite Satellite511","No Parent","No Parent"
18 Feb 2024 09:33:21.046,18 Feb 2024 09:45:10.274,709.228,"432","N/A",61.769,-111.191,566.570413,17.293,-114.155,551.876204,38.834,-104.821,1.814349,38.834,-104.821,1.814349,"432","N/A","To Place Colorado_Springs","From Satellite Satellite511","No Parent","No Parent"
18 Feb 2024 20:17:11.631,18 Feb 2024 20:28:36.783,685.152,"439","N/A",18.403,-92.593,552.116179,61.365,-95.456,566.443819,38.834,-104.821,1.814349,38.834,-104.821,1.814349,"439","N/A","To Place Colorado_Springs","From Satellite Satellite511","No Parent","No Parent"
18 Feb 2024 21:52:55.374,18 Feb 2024 22:04:05.206,669.832,"440","N/A",18.204,-116.591,552.072304,60.212,-119.390,566.075605,38.834,-104.821,1.814349,38.834,-104.821,1.814349,"440","N/A","To Place Colorado_Springs","From Satellite Satellite511","No Parent","No Parent"
19 Feb 2024 07:54:56.915,19 Feb 2024 08:05:30.004,633.090,"446","N/A",59.311,-87.509,565.781950,19.609,-90.154,552.391787,38.834,-104.821,1.814349,38.834,-104.821,1.814349,"446","N/A","To Place Colorado_Springs","From Satellite Satellite511","No Parent","No Parent"
19 Feb 2024 09:30:04.743,19 Feb 2024 09:41:52.842,708.100,"447","N/A",61.751,-111.357,566.564800,17.346,-114.316,551.887365,38.834,-104.821,1.814349,38.834,-104.821,1.814349,"447","N/A","To Place Colorado_Springs","From Satellite Satellite511","No Parent","No Parent"
19 Feb 2024 20:13:53.928,19 Feb 2024 20:25:20.623,686.695,"454","N/A",18.333,-92.753,552.100654,61.392,-95.622,566.452297,38.834,-104.821,1.814349,38.834,-104.821,1.814349,"454","N/A","To Place Colorado_Springs","From Satellite Satellite511","No Parent","No Parent"
19 Feb 2024 21:49:39.929,19 Feb 2024 22:00:47.870,667.941,"455","N/A",18.276,-116.760,552.088222,60.165,-119.551,566.060565,38.834,-104.821,1.814349,38.834,-104.821,1.814349,"455","N/A","To Place Colorado_Springs","From Satellite Satellite511","No Parent","No Parent"
20 Feb 2024 07:51:39.372,20 Feb 2024 08:02:14.892,635.520,"461","N/A",59.371,-87.669,565.801486,19.516,-90.325,552.370001,38.834,-104.821,1.814349,38.834,-104.821,1.814349,"461","N/A","To Place Colorado_Springs","From Satellite Satellite511","No Parent","No Parent"
20 Feb 2024 09:26:48.448,20 Feb 2024 09:38:35.394,706.946,"462","N/A",61.732,-111.522,566.559011,17.400,-114.476,551.898767,38.834,-104.821,1.814349,38.834,-104.821,1.814349,"462","N/A","To Place Colorado_Springs","From Satellite Satellite511","No Parent","No Parent"
20 Jan 2024 17:13:27.502,20 Jan 2024 17:21:44.262,496.760,"1","N/A",57.576,-125.951,565.202449,26.439,-128.026,554.212602,38.834,-104.821,1.814349,38.834,-104.821,1.814349,"1","N/A","To Place Colorado_Springs","From Satellite Satellite521","No Parent","No Parent"
21 Jan 2024 02:22:01.265,21 Jan 2024 02:31:04.746,543.481,"7","N/A",24.519,-83.467,553.658958,58.588,-85.738,565.542525,38.834,-104.821,1.814349,38.834,-104.821,1.814349,"7","N/A","To Place Colorado_Springs","From Satellite Satellite521","No Parent","No Parent"
21 Jan 2024 03:55:30.834,21 Jan 2024 04:07:44.453,733.619,"8","N/A",15.876,-106.904,551.588692,61.886,-109.969,566.607055,38.834,-104.821,1.814349,38.834,-104.821,1.814349,"8","N/A","To Place Colorado_Springs","From Satellite Satellite521","No Parent","No Parent"
21 Jan 2024 05:35:34.657,21 Jan 2024 05:40:31.995,297.337,"9","N/A",32.037,-131.988,555.983548,50.677,-133.231,562.757051,38.834,-104.821,1.814349,38.834,-104.821,1.814349,"9","N/A","To Place Colorado_Springs","From Satellite Satellite521","No Parent","No Parent"
21 Jan 2024 13:59:43.348,21 Jan 2024 14:06:23.306,399.958,"14","N/A",53.437,-78.370,563.757473,28.361,-80.041,554.796105,38.834,-104.821,1.814349,38.834,-104.821,1.814349,"14","N/A","To Place Colorado_Springs","From Satellite Satellite521","No Parent","No Parent"
21 Jan 2024 15:33:12.716,21 Jan 2024 15:45:29.780,737.063,"15","N/A",62.029,-101.806,566.651585,15.804,-104.886,551.574582,38.834,-104.821,1.814349,38.834,-104.821,1.814349,"15","N/A","To Place Colorado_Springs","From Satellite Satellite521","No Parent","No Parent"
21 Jan 2024 17:10:12.424,21 Jan 2024 17:18:24.917,492.492,"16","N/A",57.482,-126.121,565.170385,26.612,-128.179,554.264017,38.834,-104.821,1.814349,38.834,-104.821,1.814349,"16","N/A","To Place Colorado_Springs","From Satellite Satellite521","No Parent","No Parent"
22 Jan 2024 02:18:42.343,22 Jan 2024 02:27:49.350,547.008,"22","N/A",24.372,-83.621,553.617936,58.663,-85.907,565.567384,38.834,-104.821,1.814349,38.834,-104.821,1.814349,"22","N/A","To Place Colorado_Springs","From Satellite Satellite521","No Parent","No Parent"
22 Jan 2024 03:52:14.438,22 Jan 2024 04:04:27.637,733.199,"23","N/A",15.888,-107.069,551.591086,61.872,-110.132,566.602665,38.834,-104.821,1.814349,38.834,-104.821,1.814349,"23","N/A","To Place Colorado_Springs","From Satellite Satellite521","No Parent","No Parent"
22 Jan 2024 05:32:23.573,22 Jan 2024 05:37:11.061,287.487,"24","N/A",32.383,-132.176,556.099591,50.405,-133.377,562.657362,38.834,-104.821,1.814349,38.834,-104.821,1.814349,"24","N/A","To Place Colorado_Springs","From Satellite Satellite521","No Parent","No Parent"
22 Jan 2024 13:56:24.040,22 Jan 2024 14:03:10.461,406.421,"29","N/A",53.607,-78.523,563.818231,28.125,-80.221,554.723152,38.834,-104.821,1.814349,38.834,-104.821,1.814349,"29","N/A","To Place Colorado_Springs","From Satellite Satellite521","No Parent","No Parent"
22 Jan 2024 15:29:55.997,22 Jan 2024 15:42:13.179,737.182,"30","N/A",62.037,-101.970,566.654082,15.804,-105.050,551.574700,38.834,-104.821,1.814349,38.834,-104.821,1.814349,"30","N/A","To Place Colorado_Springs","From Satellite Satellite521","No Parent","No Parent"
22 Jan 2024 17:06:57.378,22 Jan 2024 17:15:05.526,488.148,"31","N/A",57.385,-126.292,565.137606,26.788,-128.332,554.316523,38.834,-104.821,1.814349,38.834,-104.821,1.814349,"31","N/A","To Place Colorado_Springs","From Satellite Satellite521","No Parent","No Parent"
23 Jan 2024 02:15:23.451,23 Jan 2024 02:24:33.933,550.482,"37","N/A",24.228,-83.776,553.577628,58.736,-86.076,565.591755,38.834,-104.821,1.814349,38.834,-104.821,1.814349,"37","N/A","To Place Colorado_Springs","From Satellite Satellite521","No Parent","No Parent"
23 Jan 2024 03:48:58.048,23 Jan 2024 04:01:10.809,732.761,"38","N/A",15.901,-107.234,551.593557,61.857,-110.296,566.598046,38.834,-104.821,1.814349,38.834,-104.821,1.814349,"38","N/A","To Place Colorado_Springs","From Satellite Satellite521","No Parent","No Parent"
23 Jan 2024 05:29:12.712,23 Jan 2024 05:33:49.928,277.217,"39","N/A",32.742,-132.364,556.221026,50.121,-133.522,562.552936,38.834,-104.821,1.814349,38.834,-104.821,1.814349,"39","N/A","To Place Colorado_Springs","From Satellite Satellite521","No Parent","No Parent"
23 Jan 2024 13:53:04.798,23 Jan 2024 13:59:57.546,412.748,"44","N/A",53.773,-78.676,563.877418,27.894,-80.400,554.651958,38.834,-104.821,1.814349,38.834,-104.821,1.814349,"44","N/A","To Place Colorado_Springs","From Satellite Satellite521","No Parent","No Parent"
23 Jan 2024 15:26:39.291,23 Jan 2024 15:38:56.557,737.266,"45","N/A",62.044,-102.134,566.656315,15.806,-105.214,551.575087,38.834,-104.821,1.814349,38.834,-104.821,1.814349,"45","N/A","To Place Colorado_Springs","From Satellite Satellite521","No Parent","No Parent"
23 Jan 2024 17:03:42.357,23 Jan 2024 17:11:46.101,483.744,"46","N/A",57.287,-126.463,565.104226,26.966,-128.484,554.369910,38.834,-104.821,1.814349,38.834,-104.821,1.814349,"46","N/A","To Place Colorado_Springs","From Satellite Satellite521","No Parent","No Parent"
24 Jan 2024 02:12:04.586,24 Jan 2024 02:21:18.500,553.914,"52","N/A",24.084,-83.931,553.537968,58.808,-86.245,565.615774,38.834,-104.821,1.814349,38.834,-104.821,1.814349,"52","N/A","To Place Colorado_Springs","From Satellite Satellite521","No Parent","No Parent"
24 Jan 2024 03:45:41.681,24 Jan 2024 03:57:53.980,732.298,"53","N/A",15.915,-107.399,551.596312,61.842,-110.459,566.593401,38.834,-104.821,1.814349,38.834,-104.821,1.814349,"53","N/A","To Place Colorado_Springs","From Satellite Satellite521","No Parent","No Parent"
24 Jan 2024 05:26:02.085,24 Jan 2024 05:30:28.564,266.479,"54","N/A",33.117,-132.553,556.348176,49.823,-133.666,562.442965,38.834,-104.821,1.814349,38.834,-104.821,1.814349,"54","N/A","To Place Colorado_Springs","From Satellite Satellite521","No Parent","No Parent"
24 Jan 2024 13:49:45.631,24 Jan 2024 13:56:44.547,418.916,"59","N/A",53.934,-78.829,563.934836,27.669,-80.580,554.582774,38.834,-104.821,1.814349,38.834,-104.821,1.814349,"59","N/A","To Place Colorado_Springs","From Satellite Satellite521","No Parent","No Parent"
24 Jan 2024 15:23:22.585,24 Jan 2024 15:35:39.929,737.344,"60","N/A",62.052,-102.298,566.658545,15.808,-105.378,551.575539,38.834,-104.821,1.814349,38.834,-104.821,1.814349,"60","N/A","To Place Colorado_Springs","From Satellite Satellite521","No Parent","No Parent"
24 Jan 2024 17:00:27.373,24 Jan 2024 17:08:26.638,479.265,"61","N/A",57.187,-126.634,565.070013,27.147,-128.636,554.424259,38.834,-104.821,1.814349,38.834,-104.821,1.814349,"61","N/A","To Place Colorado_Springs","From Satellite Satellite521","No Parent","No Parent"
25 Jan 2024 02:08:45.751,25 Jan 2024 02:18:03.040,557.289,"67","N/A",23.943,-84.086,553.498996,58.879,-86.414,565.639200,38.834,-104.821,1.814349,38.834,-104.821,1.814349,"67","N/A","To Place Colorado_Springs","From Satellite Satellite521","No Parent","No Parent"
25 Jan 2024 03:42:25.321,25 Jan 2024 03:54:37.137,731.816,"68","N/A",15.930,-107.565,551.599154,61.826,-110.622,566.588492,38.834,-104.821,1.814349,38.834,-104.821,1.814349,"68","N/A","To Place Colorado_Springs","From Satellite Satellite521","No Parent","No Parent"
25 Jan 2024 05:22:51.731,25 Jan 2024 05:27:06.935,255.204,"69","N/A",33.509,-132.743,556.481939,49.507,-133.809,562.326702,38.834,-104.821,1.814349,38.834,-104.821,1.814349,"69","N/A","To Place Colorado_Springs","From Satellite Satellite521","No Parent","No Parent"
25 Jan 2024 13:46:26.517,25 Jan 2024 13:53:31.484,424.967,"74","N/A",54.091,-78.983,563.990952,27.447,-80.759,554.515174,38.834,-104.821,1.814349,38.834,-104.821,1.814349,"74","N/A","To Place Colorado_Springs","From Satellite Satellite521","No Parent","No Parent"
25 Jan 2024 15:20:05.893,25 Jan 2024 15:32:23.278,737.385,"75","N/A",62.058,-102.461,566.660499,15.812,-105.542,551.576277,38.834,-104.821,1.814349,38.834,-104.821,1.814349,"75","N/A","To Place Colorado_Springs","From Satellite Satellite521","No Parent","No Parent"
25 Jan 2024 16:57:12.417,25 Jan 2024 17:05:07.130,474.713,"76","N/A",57.085,-126.805,565.035142,27.330,-128.788,554.479724,38.834,-104.821,1.814349,38.834,-104.821,1.814349,"76","N/A","To Place Colorado_Springs","From Satellite Satellite521","No Parent","No Parent"
26 Jan 2024 02:05:26.938,26 Jan 2024 02:14:47.569,560.631,"82","N/A",23.803,-84.240,553.460581,58.949,-86.583,565.662378,38.834,-104.821,1.814349,38.834,-104.821,1.814349,"82","N/A","To Place Colorado_Springs","From Satellite Satellite521","No Parent","No Parent"
26 Jan 2024 03:39:08.984,26 Jan 2024 03:51:20.293,731.309,"83","N/A",15.946,-107.730,551.602278,61.811,-110.785,566.583553,38.834,-104.821,1.814349,38.834,-104.821,1.814349,"83","N/A","To Place Colorado_Springs","From Satellite Satellite521","No Parent","No Parent"
26 Jan 2024 05:19:41.682,26 Jan 2024 05:23:45.016,243.334,"84","N/A",33.919,-132.935,556.623090,49.174,-133.951,562.203531,38.834,-104.821,1.814349,38.834,-104.821,1.814349,"84","N/A","To Place Colorado_Springs","From Satellite Satellite521","No Parent","No Parent"
26 Jan 2024 13:43:07.473,26 Jan 2024 13:50:18.343,430.870,"89","N/A",54.245,-79.137,564.045438,27.230,-80.937,554.449433,38.834,-104.821,1.814349,38.834,-104.821,1.814349,"89","N/A","To Place Colorado_Springs","From Satellite Satellite521","No Parent","No Parent"
26 Jan 2024 15:16:49.202,26 Jan 2024 15:29:06.622,737.420,"90","N/A",62.064,-102.625,566.662456,15.816,-105.706,551.577079,38.834,-104.821,1.814349,38.834,-104.821,1.814349,"90","N/A","To Place Colorado_Springs","From Satellite Satellite521","No Parent","No Parent"
26 Jan 2024 16:53:57.500,26 Jan 2024 17:01:47.584,470.084,"91","N/A",56.980,-126.976,564.999384,27.516,-128.940,554.536155,38.834,-104.821,1.814349,38.834,-104.821,1.814349,"91","N/A","To Place Colorado_Springs","From Satellite Satellite521","No Parent","No Parent"
27 Jan 2024 02:02:08.156,27 Jan 2024 02:11:32.075,563.919,"97","N/A",23.666,-84.396,553.422868,59.017,-86.751,565.685040,38.834,-104.821,1.814349,38.834,-104.821,1.814349,"97","N/A","To Place Colorado_Springs","From Satellite Satellite521","No Parent","No Parent"
27 Jan 2024 03:35:52.657,27 Jan 2024 03:48:03.438,730.781,"98","N/A",15.962,-107.895,551.605538,61.794,-110.948,566.578407,38.834,-104.821,1.814349,38.834,-104.821,1.814349,"98","N/A","To Place Colorado_Springs","From Satellite Satellite521","No Parent","No Parent"
27 Jan 2024 05:16:31.988,27 Jan 2024 05:20:22.751,230.763,"99","N/A",34.352,-133.128,556.772776,48.819,-134.092,562.072120,38.834,-104.821,1.814349,38.834,-104.821,1.814349,"99","N/A","To Place Colorado_Springs","From Satellite Satellite521","No Parent","No Parent"
27 Jan 2024 13:39:48.481,27 Jan 2024 13:47:05.139,436.659,"104","N/A",54.395,-79.291,564.098657,27.017,-81.116,554.385221,38.834,-104.821,1.814349,38.834,-104.821,1.814349,"104","N/A","To Place Colorado_Springs","From Satellite Satellite521","No Parent","No Parent"
27 Jan 2024 15:13:32.520,27 Jan 2024 15:25:49.946,737.426,"105","N/A",62.070,-102.789,566.664206,15.822,-105.870,551.578112,38.834,-104.821,1.814349,38.834,-104.821,1.814349,"105","N/A","To Place Colorado_Springs","From Satellite Satellite521","No Parent","No Parent"
27 Jan 2024 16:50:42.613,27 Jan 2024 16:58:27.993,465.381,"106","N/A",56.874,-127.148,564.962936,27.704,-129.092,554.593709,38.834,-104.821,1.814349,38.834,-104.821,1.814349,"106","N/A","To Place Colorado_Springs","From Satellite Satellite521","No Parent","No Parent"
28 Jan 2024 01:58:49.400,28 Jan 2024 02:08:16.562,567.162,"112","N/A",23.529,-84.551,553.385776,59.085,-86.920,565.707295,38.834,-104.821,1.814349,38.834,-104.821,1.814349,"112","N/A","To Place Colorado_Springs","From Satellite Satellite521","No Parent","No Parent"
28 Jan 2024 03:32:36.345,28 Jan 2024 03:44:46.575,730.230,"113","N/A",15.980,-108.061,551.608985,61.777,-111.111,566.573112,38.834,-104.821,1.814349,38.834,-104.821,1.814349,"113","N/A","To Place Colorado_Springs","From Satellite Satellite521","No Parent","No Parent"
28 Jan 2024 05:13:22.707,28 Jan 2024 05:17:00.082,217.375,"114","N/A",34.811,-133.323,556.932412,48.438,-134.231,561.931124,38.834,-104.821,1.814349,38.834,-104.821,1.814349,"114","N/A","To Place Colorado_Springs","From Satellite Satellite521","No Parent","No Parent"
28 Jan 2024 13:36:29.543,28 Jan 2024 13:43:51.872,442.329,"119","N/A",54.542,-79.446,564.150590,26.808,-81.294,554.322561,38.834,-104.821,1.814349,38.834,-104.821,1.814349,"119","N/A","To Place Colorado_Springs","From Satellite Satellite521","No Parent","No Parent"
28 Jan 2024 15:10:15.846,28 Jan 2024 15:22:33.257,737.411,"120","N/A",62.075,-102.953,566.665820,15.828,-106.034,551.579320,38.834,-104.821,1.814349,38.834,-104.821,1.814349,"120","N/A","To Place Colorado_Springs","From Satellite Satellite521","No Parent","No Parent"
28 Jan 2024 16:47:27.763,28 Jan 2024 16:55:08.359,460.596,"121","N/A",56.765,-127.319,564.925623,27.896,-129.243,554.652375,38.834,-104.821,1.814349,38.834,-104.821,1.814349,"121","N/A","To Place Colorado_Springs","From Satellite Satellite521","No Parent","No Parent"
29 Jan 2024 01:55:30.671,29 Jan 2024 02:05:01.032,570.361,"127","N/A",23.395,-84.706,553.349294,59.151,-87.089,565.729150,38.834,-104.821,1.814349,38.834,-104.821,1.814349,"127","N/A","To Place Colorado_Springs","From Satellite Satellite521","No Parent","No Parent"
29 Jan 2024 03:29:20.049,29 Jan 2024 03:41:29.705,729.657,"128","N/A",15.998,-108.226,551.612620,61.760,-111.274,566.567667,38.834,-104.821,1.814349,38.834,-104.821,1.814349,"128","N/A","To Place Colorado_Springs","From Satellite Satellite521","No Parent","No Parent"
29 Jan 2024 05:10:13.921,29 Jan 2024 05:13:36.929,203.008,"129","N/A",35.301,-133.520,557.103906,48.027,-134.368,561.778644,38.834,-104.821,1.814349,38.834,-104.821,1.814349,"129","N/A","To Place Colorado_Springs","From Satellite Satellite521","No Parent","No Parent"
29 Jan 2024 13:33:10.659,29 Jan 2024 13:40:38.544,447.885,"134","N/A",54.685,-79.600,564.201252,26.603,-81.472,554.261376,38.834,-104.821,1.814349,38.834,-104.821,1.814349,"134","N/A","To Place Colorado_Springs","From Satellite Satellite521","No Parent","No Parent"
29 Jan 2024 15:06:59.179,29 Jan 2024 15:19:16.554,737.374,"135","N/A",62.080,-103.117,566.667298,15.835,-106.197,551.580703,38.834,-104.821,1.814349,38.834,-104.821,1.814349,"135","N/A","To Place Colorado_Springs","From Satellite Satellite521","No Parent","No Parent"
29 Jan 2024 16:44:12.949,29 Jan 2024 16:51:48.679,455.730,"136","N/A",56.654,-127.491,564.887481,28.090,-129.395,554.712187,38.834,-104.821,1.814349,38.834,-104.821,1.814349,"136","N/A","To Place Colorado_Springs","From Satellite Satellite521","No Parent","No Parent"
30 Jan 2024 01:52:11.967,30 Jan 2024 02:01:45.483,573.516,"142","N/A",23.262,-84.861,553.313410,59.216,-87.257,565.750613,38.834,-104.821,1.814349,38.834,-104.821,1.814349,"142","N/A","To Place Colorado_Springs","From Satellite Satellite521","No Parent","No Parent"
30 Jan 2024 03:26:03.767,30 Jan 2024 03:38:12.828,729.061,"143","N/A",16.018,-108.392,551.616444,61.742,-111.437,566.562071,38.834,-104.821,1.814349,38.834,-104.821,1.814349,"143","N/A","To Place Colorado_Springs","From Satellite Satellite521","No Parent","No Parent"
30 Jan 2024 05:07:05.742,30 Jan 2024 05:10:13.179,187.437,"144","N/A",35.829,-133.719,557.289905,47.579,-134.502,561.612037,38.834,-104.821,1.814349,38.834,-104.821,1.814349,"144","N/A","To Place Colorado_Springs","From Satellite Satellite521","No Parent","No Parent"
30 Jan 2024 13:29:51.821,30 Jan 2024 13:37:25.155,453.334,"149","N/A",54.826,-79.755,564.250801,26.402,-81.649,554.201648,38.834,-104.821,1.814349,38.834,-104.821,1.814349,"149","N/A","To Place Colorado_Springs","From Satellite Satellite521","No Parent","No Parent"
30 Jan 2024 15:03:42.519,30 Jan 2024 15:15:59.836,737.316,"150","N/A",62.084,-103.281,566.668640,15.843,-106.361,551.582261,38.834,-104.821,1.814349,38.834,-104.821,1.814349,"150","N/A","To Place Colorado_Springs","From Satellite Satellite521","No Parent","No Parent"
30 Jan 2024 16:40:58.172,30 Jan 2024 16:48:28.952,450.780,"151","N/A",56.540,-127.663,564.848467,28.287,-129.546,554.773180,38.834,-104.821,1.814349,38.834,-104.821,1.814349,"151","N/A","To Place Colorado_Springs","From Satellite Satellite521","No Parent","No Parent"
31 Jan 2024 01:48:53.289,31 Jan 2024 01:58:29.918,576.629,"157","N/A",23.131,-85.017,553.278114,59.280,-87.426,565.771694,38.834,-104.821,1.814349,38.834,-104.821,1.814349,"157","N/A","To Place Colorado_Springs","From Satellite Satellite521","No Parent","No Parent"
31 Jan 2024 03:22:47.500,31 Jan 2024 03:34:55.943,728.443,"158","N/A",16.038,-108.557,551.620457,61.724,-111.600,566.556324,38.834,-104.821,1.814349,38.834,-104.821,1.814349,"158","N/A","To Place Colorado_Springs","From Satellite Satellite521","No Parent","No Parent"
31 Jan 2024 05:03:58.336,31 Jan 2024 05:06:48.668,170.332,"159","N/A",36.406,-133.922,557.494284,47.083,-134.633,561.427433,38.834,-104.821,1.814349,38.834,-104.821,1.814349,"159","N/A","To Place Colorado_Springs","From Satellite Satellite521","No Parent","No Parent"
31 Jan 2024 13:26:33.040,31 Jan 2024 13:34:11.710,458.670,"164","N/A",54.962,-79.910,564.299021,26.204,-81.827,554.143290,38.834,-104.821,1.814349,38.834,-104.821,1.814349,"164","N/A","To Place Colorado_Springs","From Satellite Satellite521","No Parent","No Parent"
31 Jan 2024 15:00:25.867,31 Jan 2024 15:12:43.104,737.237,"165","N/A",62.088,-103.445,566.669845,15.852,-106.525,551.583996,38.834,-104.821,1.814349,38.834,-104.821,1.814349,"165","N/A","To Place Colorado_Springs","From Satellite Satellite521","No Parent","No Parent"
31 Jan 2024 16:37:43.435,31 Jan 2024 16:45:09.178,445.742,"166","N/A",56.425,-127.835,564.808537,28.487,-129.697,554.835393,38.834,-104.821,1.814349,38.834,-104.821,1.814349,"166","N/A","To Place Colorado_Springs","From Satellite Satellite521","No Parent","No Parent"
1 Feb 2024 01:45:34.641,1 Feb 2024 01:55:14.335,579.694,"172","N/A",23.001,-85.173,553.243473,59.343,-87.594,565.792399,38.834,-104.821,1.814349,38.834,-104.821,1.814349,"172","N/A","To Place Colorado_Springs","From Satellite Satellite521","No Parent","No Parent"
1 Feb 2024 03:19:31.249,1 Feb 2024 03:31:39.046,727.797,"173","N/A",16.059,-108.723,551.624668,61.704,-111.763,566.550336,38.834,-104.821,1.814349,38.834,-104.821,1.814349,"173","N/A","To Place Colorado_Springs","From Satellite Satellite521","No Parent","No Parent"
1 Feb 2024 05:00:51.961,1 Feb 2024 05:03:23.129,151.168,"174","N/A",37.047,-134.128,557.723132,46.523,-134.760,561.218629,38.834,-104.821,1.814349,38.834,-104.821,1.814349,"174","N/A","To Place Colorado_Springs","From Satellite Satellite521","No Parent","No Parent"
1 Feb 2024 13:23:14.301,1 Feb 2024 13:30:58.211,463.909,"179","N/A",55.097,-80.066,564.346223,26.009,-82.004,554.086223,38.834,-104.821,1.814349,38.834,-104.821,1.814349,"179","N/A","To Place Colorado_Springs","From Satellite Satellite521","No Parent","No Parent"
1 Feb 2024 14:57:09.225,1 Feb 2024 15:09:26.353,737.129,"180","N/A",62.091,-103.609,566.670837,15.862,-106.688,551.585958,38.834,-104.821,1.814349,38.834,-104.821,1.814349,"180","N/A","To Place Colorado_Springs","From Satellite Satellite521","No Parent","No Parent"
1 Feb 2024 16:34:28.735,1 Feb 2024 16:41:49.349,440.614,"181","N/A",56.306,-128.007,564.767757,28.691,-129.848,554.898956,38.834,-104.821,1.814349,38.834,-104.821,1.814349,"181","N/A","To Place Colorado_Springs","From Satellite Satellite521","No Parent","No Parent"
2 Feb 2024 01:42:16.009,2 Feb 2024 01:51:58.736,582.728,"187","N/A",22.873,-85.328,553.209242,59.405,-87.763,565.812735,38.834,-104.821,1.814349,38.834,-104.821,1.814349,"187","N/A","To Place Colorado_Springs","From Satellite Satellite521","No Parent","No Parent"
2 Feb 2024 03:16:15.012,2 Feb 2024 03:28:22.150,727.138,"188","N/A",16.082,-108.889,551.629057,61.685,-111.926,566.544372,38.834,-104.821,1.814349,38.834,-104.821,1.814349,"188","N/A","To Place Colorado_Springs","From Satellite Satellite521","No Parent","No Parent"
2 Feb 2024 04:57:47.076,2 Feb 2024 04:59:56.122,129.047,"189","N/A",37.781,-134.342,557.987133,45.871,-134.881,560.975285,38.834,-104.821,1.814349,38.834,-104.821,1.814349,"189","N/A","To Place Colorado_Springs","From Satellite Satellite521","No Parent","No Parent"
2 Feb 2024 13:19:55.603,2 Feb 2024 13:27:44.655,469.051,"194","N/A",55.228,-80.221,564.392458,25.819,-82.181,554.030505,38.834,-104.821,1.814349,38.834,-104.821,1.814349,"194","N/A","To Place Colorado_Springs","From Satellite Satellite521","No Parent","No Parent"
2 Feb 2024 14:53:52.582,2 Feb 2024 15:06:09.597,737.015,"195","N/A",62.094,-103.773,566.671848,15.872,-106.852,551.587991,38.834,-104.821,1.814349,38.834,-104.821,1.814349,"195","N/A","To Place Colorado_Springs","From Satellite Satellite521","No Parent","No Parent"
2 Feb 2024 16:31:14.086,2 Feb 2024 16:38:29.479,435.393,"196","N/A",56.185,-128.179,564.725784,28.897,-129.998,554.963635,38.834,-104.821,1.814349,38.834,-104.821,1.814349,"196","N/A","To Place Colorado_Springs","From Satellite Satellite521","No Parent","No Parent"
