Strategies/csv_stk/Chain1_Access_Data_9sat_5plane.csv

"Start Time (UTCG)","Stop Time (UTCG)","Duration (sec)","From Pass","To Pass","From Start Lat (deg)","From Start Lon (deg)","From Start Alt (km)","From Stop Lat (deg)","From Stop Lon (deg)","From Stop Alt (km)","To Start Lat (deg)","To Start Lon (deg)","To Start Alt (km)","To Stop Lat (deg)","To Stop Lon (deg)","To Stop Alt (km)","From Pass End","To Pass End","To Object","From Object","To Parent","From Parent"
20 Jan 2024 21:52:51.903,20 Jan 2024 22:03:21.815,629.912,"4","N/A",20.866,-87.994,552.694474,60.360,-90.625,566.123371,38.834,-104.821,-0.000000,38.834,-104.821,-0.000000,"4","N/A","To Place Colorado_Springs","From Satellite Leo_Sat11","No Parent","No Parent"
20 Jan 2024 23:27:30.550,20 Jan 2024 23:39:24.062,713.512,"5","N/A",16.570,-111.719,551.726711,61.319,-114.701,566.429109,38.834,-104.821,-0.000000,38.834,-104.821,-0.000000,"5","N/A","To Place Colorado_Springs","From Satellite Leo_Sat11","No Parent","No Parent"
21 Jan 2024 09:30:32.284,21 Jan 2024 09:39:38.013,545.729,"11","N/A",57.172,-82.889,565.065100,22.952,-85.170,553.230363,38.834,-104.821,-0.000000,38.834,-104.821,-0.000000,"11","N/A","To Place Colorado_Springs","From Satellite Leo_Sat11","No Parent","No Parent"
21 Jan 2024 11:05:00.014,21 Jan 2024 11:17:12.905,732.891,"12","N/A",62.116,-106.570,566.678671,16.154,-109.632,551.643421,38.834,-104.821,-0.000000,38.834,-104.821,-0.000000,"12","N/A","To Place Colorado_Springs","From Satellite Leo_Sat11","No Parent","No Parent"
21 Jan 2024 12:43:02.299,21 Jan 2024 12:48:32.522,330.224,"13","N/A",53.658,-131.146,563.836473,32.964,-132.526,556.296232,38.834,-104.821,-0.000000,38.834,-104.821,-0.000000,"13","N/A","To Place Colorado_Springs","From Satellite Leo_Sat11","No Parent","No Parent"
21 Jan 2024 21:49:33.674,21 Jan 2024 22:00:05.956,632.282,"19","N/A",20.763,-88.151,552.669056,60.406,-90.793,566.138081,38.834,-104.821,-0.000000,38.834,-104.821,-0.000000,"19","N/A","To Place Colorado_Springs","From Satellite Leo_Sat11","No Parent","No Parent"
21 Jan 2024 23:24:14.593,21 Jan 2024 23:36:07.020,712.427,"20","N/A",16.610,-111.886,551.734814,61.290,-114.863,566.420216,38.834,-104.821,-0.000000,38.834,-104.821,-0.000000,"20","N/A","To Place Colorado_Springs","From Satellite Leo_Sat11","No Parent","No Parent"
22 Jan 2024 09:27:14.199,22 Jan 2024 09:36:23.684,549.485,"26","N/A",57.266,-83.047,565.096941,22.810,-85.343,553.192525,38.834,-104.821,-0.000000,38.834,-104.821,-0.000000,"26","N/A","To Place Colorado_Springs","From Satellite Leo_Sat11","No Parent","No Parent"
22 Jan 2024 11:01:43.502,22 Jan 2024 11:13:55.891,732.389,"27","N/A",62.112,-106.734,566.677150,16.181,-109.794,551.648712,38.834,-104.821,-0.000000,38.834,-104.821,-0.000000,"27","N/A","To Place Colorado_Springs","From Satellite Leo_Sat11","No Parent","No Parent"
22 Jan 2024 12:39:48.851,22 Jan 2024 12:45:11.280,322.429,"28","N/A",53.461,-131.324,563.766205,33.256,-132.671,556.395673,38.834,-104.821,-0.000000,38.834,-104.821,-0.000000,"28","N/A","To Place Colorado_Springs","From Satellite Leo_Sat11","No Parent","No Parent"
22 Jan 2024 21:46:15.469,22 Jan 2024 21:56:50.085,634.616,"34","N/A",20.661,-88.309,552.644123,60.451,-90.960,566.152559,38.834,-104.821,-0.000000,38.834,-104.821,-0.000000,"34","N/A","To Place Colorado_Springs","From Satellite Leo_Sat11","No Parent","No Parent"
22 Jan 2024 23:20:58.655,22 Jan 2024 23:32:49.965,711.309,"35","N/A",16.651,-112.053,551.743182,61.261,-115.025,566.411053,38.834,-104.821,-0.000000,38.834,-104.821,-0.000000,"35","N/A","To Place Colorado_Springs","From Satellite Leo_Sat11","No Parent","No Parent"
23 Jan 2024 09:23:56.136,23 Jan 2024 09:33:09.325,553.189,"41","N/A",57.358,-83.205,565.128236,22.669,-85.517,553.155356,38.834,-104.821,-0.000000,38.834,-104.821,-0.000000,"41","N/A","To Place Colorado_Springs","From Satellite Leo_Sat11","No Parent","No Parent"
23 Jan 2024 10:58:26.997,23 Jan 2024 11:10:38.859,731.862,"42","N/A",62.106,-106.899,566.675498,16.209,-109.957,551.654229,38.834,-104.821,-0.000000,38.834,-104.821,-0.000000,"42","N/A","To Place Colorado_Springs","From Satellite Leo_Sat11","No Parent","No Parent"
23 Jan 2024 12:36:35.520,23 Jan 2024 12:41:49.917,314.397,"43","N/A",53.257,-131.501,563.693187,33.556,-132.815,556.498184,38.834,-104.821,-0.000000,38.834,-104.821,-0.000000,"43","N/A","To Place Colorado_Springs","From Satellite Leo_Sat11","No Parent","No Parent"
23 Jan 2024 21:42:57.284,23 Jan 2024 21:53:34.201,636.917,"49","N/A",20.561,-88.466,552.619595,60.495,-91.127,566.166747,38.834,-104.821,-0.000000,38.834,-104.821,-0.000000,"49","N/A","To Place Colorado_Springs","From Satellite Leo_Sat11","No Parent","No Parent"
23 Jan 2024 23:17:42.731,23 Jan 2024 23:29:32.900,710.170,"50","N/A",16.693,-112.220,551.751729,61.232,-115.187,566.401711,38.834,-104.821,-0.000000,38.834,-104.821,-0.000000,"50","N/A","To Place Colorado_Springs","From Satellite Leo_Sat11","No Parent","No Parent"
24 Jan 2024 09:20:38.100,24 Jan 2024 09:29:54.934,556.834,"56","N/A",57.448,-83.364,565.158935,22.531,-85.690,553.118914,38.834,-104.821,-0.000000,38.834,-104.821,-0.000000,"56","N/A","To Place Colorado_Springs","From Satellite Leo_Sat11","No Parent","No Parent"
24 Jan 2024 10:55:10.498,24 Jan 2024 11:07:21.812,731.314,"57","N/A",62.100,-107.063,566.673708,16.238,-110.119,551.659936,38.834,-104.821,-0.000000,38.834,-104.821,-0.000000,"57","N/A","To Place Colorado_Springs","From Satellite Leo_Sat11","No Parent","No Parent"
24 Jan 2024 12:33:22.312,24 Jan 2024 12:38:28.417,306.104,"58","N/A",53.046,-131.680,563.617219,33.864,-132.959,556.604086,38.834,-104.821,-0.000000,38.834,-104.821,-0.000000,"58","N/A","To Place Colorado_Springs","From Satellite Leo_Sat11","No Parent","No Parent"
24 Jan 2024 21:39:39.119,24 Jan 2024 21:50:18.305,639.187,"64","N/A",20.462,-88.624,552.595467,60.538,-91.294,566.180685,38.834,-104.821,-0.000000,38.834,-104.821,-0.000000,"64","N/A","To Place Colorado_Springs","From Satellite Leo_Sat11","No Parent","No Parent"
24 Jan 2024 23:14:26.822,24 Jan 2024 23:26:15.827,709.005,"65","N/A",16.736,-112.387,551.760505,61.202,-115.350,566.392188,38.834,-104.821,-0.000000,38.834,-104.821,-0.000000,"65","N/A","To Place Colorado_Springs","From Satellite Leo_Sat11","No Parent","No Parent"
25 Jan 2024 09:17:20.088,25 Jan 2024 09:26:40.510,560.422,"71","N/A",57.537,-83.522,565.189077,22.395,-85.863,553.083176,38.834,-104.821,-0.000000,38.834,-104.821,-0.000000,"71","N/A","To Place Colorado_Springs","From Satellite Leo_Sat11","No Parent","No Parent"
25 Jan 2024 10:51:54.003,25 Jan 2024 11:04:04.747,730.745,"72","N/A",62.094,-107.228,566.671856,16.267,-110.281,551.665881,38.834,-104.821,-0.000000,38.834,-104.821,-0.000000,"72","N/A","To Place Colorado_Springs","From Satellite Leo_Sat11","No Parent","No Parent"
25 Jan 2024 12:30:09.236,25 Jan 2024 12:35:06.773,297.536,"73","N/A",52.826,-131.859,563.538136,34.182,-133.102,556.713592,38.834,-104.821,-0.000000,38.834,-104.821,-0.000000,"73","N/A","To Place Colorado_Springs","From Satellite Leo_Sat11","No Parent","No Parent"
25 Jan 2024 21:36:20.973,25 Jan 2024 21:47:02.396,641.423,"79","N/A",20.364,-88.782,552.571731,60.581,-91.461,566.194344,38.834,-104.821,-0.000000,38.834,-104.821,-0.000000,"79","N/A","To Place Colorado_Springs","From Satellite Leo_Sat11","No Parent","No Parent"
25 Jan 2024 23:11:10.926,25 Jan 2024 23:22:58.745,707.820,"80","N/A",16.780,-112.555,551.769459,61.171,-115.512,566.382482,38.834,-104.821,-0.000000,38.834,-104.821,-0.000000,"80","N/A","To Place Colorado_Springs","From Satellite Leo_Sat11","No Parent","No Parent"
26 Jan 2024 09:14:02.095,26 Jan 2024 09:23:26.054,563.958,"86","N/A",57.624,-83.680,565.218761,22.260,-86.037,553.048141,38.834,-104.821,-0.000000,38.834,-104.821,-0.000000,"86","N/A","To Place Colorado_Springs","From Satellite Leo_Sat11","No Parent","No Parent"
26 Jan 2024 10:48:37.523,26 Jan 2024 11:00:47.676,730.154,"87","N/A",62.088,-107.393,566.669717,16.298,-110.443,551.671920,38.834,-104.821,-0.000000,38.834,-104.821,-0.000000,"87","N/A","To Place Colorado_Springs","From Satellite Leo_Sat11","No Parent","No Parent"
26 Jan 2024 12:26:56.314,26 Jan 2024 12:31:44.974,288.660,"88","N/A",52.597,-132.038,563.455428,34.509,-133.244,556.826959,38.834,-104.821,-0.000000,38.834,-104.821,-0.000000,"88","N/A","To Place Colorado_Springs","From Satellite Leo_Sat11","No Parent","No Parent"
26 Jan 2024 21:33:02.847,26 Jan 2024 21:43:46.480,643.633,"94","N/A",20.268,-88.939,552.548384,60.623,-91.629,566.207833,38.834,-104.821,-0.000000,38.834,-104.821,-0.000000,"94","N/A","To Place Colorado_Springs","From Satellite Leo_Sat11","No Parent","No Parent"
26 Jan 2024 23:07:55.050,26 Jan 2024 23:19:41.655,706.605,"95","N/A",16.825,-112.722,551.778700,61.140,-115.674,566.372593,38.834,-104.821,-0.000000,38.834,-104.821,-0.000000,"95","N/A","To Place Colorado_Springs","From Satellite Leo_Sat11","No Parent","No Parent"
27 Jan 2024 09:10:44.128,27 Jan 2024 09:20:11.567,567.439,"101","N/A",57.710,-83.839,565.247871,22.128,-86.210,553.013774,38.834,-104.821,-0.000000,38.834,-104.821,-0.000000,"101","N/A","To Place Colorado_Springs","From Satellite Leo_Sat11","No Parent","No Parent"
27 Jan 2024 10:45:21.046,27 Jan 2024 10:57:30.586,729.541,"102","N/A",62.080,-107.557,566.667512,16.329,-110.606,551.678200,38.834,-104.821,-0.000000,38.834,-104.821,-0.000000,"102","N/A","To Place Colorado_Springs","From Satellite Leo_Sat11","No Parent","No Parent"
27 Jan 2024 12:23:43.549,27 Jan 2024 12:28:23.004,279.455,"103","N/A",52.357,-132.218,563.368956,34.846,-133.386,556.944576,38.834,-104.821,-0.000000,38.834,-104.821,-0.000000,"103","N/A","To Place Colorado_Springs","From Satellite Leo_Sat11","No Parent","No Parent"
27 Jan 2024 21:29:44.740,27 Jan 2024 21:40:30.550,645.810,"109","N/A",20.172,-89.097,552.525419,60.664,-91.796,566.221050,38.834,-104.821,-0.000000,38.834,-104.821,-0.000000,"109","N/A","To Place Colorado_Springs","From Satellite Leo_Sat11","No Parent","No Parent"
27 Jan 2024 23:04:39.191,27 Jan 2024 23:16:24.555,705.364,"110","N/A",16.871,-112.889,551.788178,61.108,-115.836,566.362517,38.834,-104.821,-0.000000,38.834,-104.821,-0.000000,"110","N/A","To Place Colorado_Springs","From Satellite Leo_Sat11","No Parent","No Parent"
28 Jan 2024 09:07:26.182,28 Jan 2024 09:16:57.049,570.867,"116","N/A",57.795,-83.997,565.276487,21.998,-86.383,552.980074,38.834,-104.821,-0.000000,38.834,-104.821,-0.000000,"116","N/A","To Place Colorado_Springs","From Satellite Leo_Sat11","No Parent","No Parent"
28 Jan 2024 10:42:04.572,28 Jan 2024 10:54:13.478,728.906,"117","N/A",62.073,-107.722,566.665244,16.362,-110.768,551.684724,38.834,-104.821,-0.000000,38.834,-104.821,-0.000000,"117","N/A","To Place Colorado_Springs","From Satellite Leo_Sat11","No Parent","No Parent"
28 Jan 2024 12:20:30.959,28 Jan 2024 12:25:00.847,269.889,"118","N/A",52.107,-132.399,563.278369,35.196,-133.527,557.066837,38.834,-104.821,-0.000000,38.834,-104.821,-0.000000,"118","N/A","To Place Colorado_Springs","From Satellite Leo_Sat11","No Parent","No Parent"
28 Jan 2024 21:26:26.652,28 Jan 2024 21:37:14.607,647.955,"124","N/A",20.078,-89.255,552.502831,60.705,-91.963,566.233993,38.834,-104.821,-0.000000,38.834,-104.821,-0.000000,"124","N/A","To Place Colorado_Springs","From Satellite Leo_Sat11","No Parent","No Parent"
28 Jan 2024 23:01:23.349,28 Jan 2024 23:13:07.446,704.097,"125","N/A",16.918,-113.056,551.797896,61.076,-115.998,566.352255,38.834,-104.821,-0.000000,38.834,-104.821,-0.000000,"125","N/A","To Place Colorado_Springs","From Satellite Leo_Sat11","No Parent","No Parent"
29 Jan 2024 09:04:08.260,29 Jan 2024 09:13:42.500,574.241,"131","N/A",57.878,-84.156,565.304574,21.869,-86.555,552.947031,38.834,-104.821,-0.000000,38.834,-104.821,-0.000000,"131","N/A","To Place Colorado_Springs","From Satellite Leo_Sat11","No Parent","No Parent"
29 Jan 2024 10:38:48.110,29 Jan 2024 10:50:56.360,728.250,"132","N/A",62.065,-107.887,566.662759,16.395,-110.930,551.691392,38.834,-104.821,-0.000000,38.834,-104.821,-0.000000,"132","N/A","To Place Colorado_Springs","From Satellite Leo_Sat11","No Parent","No Parent"
29 Jan 2024 12:17:18.571,29 Jan 2024 12:21:38.482,259.911,"133","N/A",51.844,-132.581,563.182962,35.558,-133.667,557.194225,38.834,-104.821,-0.000000,38.834,-104.821,-0.000000,"133","N/A","To Place Colorado_Springs","From Satellite Leo_Sat11","No Parent","No Parent"
29 Jan 2024 21:23:08.583,29 Jan 2024 21:33:58.655,650.071,"139","N/A",19.985,-89.413,552.480616,60.744,-92.130,566.246731,38.834,-104.821,-0.000000,38.834,-104.821,-0.000000,"139","N/A","To Place Colorado_Springs","From Satellite Leo_Sat11","No Parent","No Parent"
29 Jan 2024 22:58:07.523,29 Jan 2024 23:09:50.328,702.805,"140","N/A",16.966,-113.224,551.807855,61.043,-116.160,566.341803,38.834,-104.821,-0.000000,38.834,-104.821,-0.000000,"140","N/A","To Place Colorado_Springs","From Satellite Leo_Sat11","No Parent","No Parent"
30 Jan 2024 09:00:50.354,30 Jan 2024 09:10:27.925,577.570,"146","N/A",57.960,-84.315,565.332257,21.742,-86.728,552.914574,38.834,-104.821,-0.000000,38.834,-104.821,-0.000000,"146","N/A","To Place Colorado_Springs","From Satellite Leo_Sat11","No Parent","No Parent"
30 Jan 2024 10:35:31.655,30 Jan 2024 10:47:39.230,727.576,"147","N/A",62.057,-108.052,566.660133,16.429,-111.092,551.698213,38.834,-104.821,-0.000000,38.834,-104.821,-0.000000,"147","N/A","To Place Colorado_Springs","From Satellite Leo_Sat11","No Parent","No Parent"
30 Jan 2024 12:14:06.406,30 Jan 2024 12:18:15.885,249.479,"148","N/A",51.567,-132.764,563.082263,35.935,-133.806,557.327324,38.834,-104.821,-0.000000,38.834,-104.821,-0.000000,"148","N/A","To Place Colorado_Springs","From Satellite Leo_Sat11","No Parent","No Parent"
30 Jan 2024 21:19:50.533,30 Jan 2024 21:30:42.691,652.158,"154","N/A",19.893,-89.571,552.458766,60.784,-92.296,566.259244,38.834,-104.821,-0.000000,38.834,-104.821,-0.000000,"154","N/A","To Place Colorado_Springs","From Satellite Leo_Sat11","No Parent","No Parent"
30 Jan 2024 22:54:51.715,30 Jan 2024 23:06:33.200,701.485,"155","N/A",17.015,-113.391,551.818059,61.009,-116.322,566.331138,38.834,-104.821,-0.000000,38.834,-104.821,-0.000000,"155","N/A","To Place Colorado_Springs","From Satellite Leo_Sat11","No Parent","No Parent"
31 Jan 2024 08:57:32.472,31 Jan 2024 09:07:13.317,580.845,"161","N/A",58.041,-84.474,565.359417,21.617,-86.900,552.882777,38.834,-104.821,-0.000000,38.834,-104.821,-0.000000,"161","N/A","To Place Colorado_Springs","From Satellite Leo_Sat11","No Parent","No Parent"
31 Jan 2024 10:32:15.207,31 Jan 2024 10:44:22.083,726.876,"162","N/A",62.048,-108.216,566.657367,16.464,-111.254,551.705272,38.834,-104.821,-0.000000,38.834,-104.821,-0.000000,"162","N/A","To Place Colorado_Springs","From Satellite Leo_Sat11","No Parent","No Parent"
31 Jan 2024 12:10:54.495,31 Jan 2024 12:14:53.026,238.531,"163","N/A",51.275,-132.948,562.975567,36.329,-133.944,557.466843,38.834,-104.821,-0.000000,38.834,-104.821,-0.000000,"163","N/A","To Place Colorado_Springs","From Satellite Leo_Sat11","No Parent","No Parent"
31 Jan 2024 21:16:32.505,31 Jan 2024 21:27:26.718,654.214,"169","N/A",19.802,-89.730,552.437317,60.822,-92.463,566.271547,38.834,-104.821,-0.000000,38.834,-104.821,-0.000000,"169","N/A","To Place Colorado_Springs","From Satellite Leo_Sat11","No Parent","No Parent"
31 Jan 2024 22:51:35.923,31 Jan 2024 23:03:16.064,700.141,"170","N/A",17.066,-113.559,551.828511,60.975,-116.484,566.320322,38.834,-104.821,-0.000000,38.834,-104.821,-0.000000,"170","N/A","To Place Colorado_Springs","From Satellite Leo_Sat11","No Parent","No Parent"
1 Feb 2024 08:54:14.611,1 Feb 2024 09:03:58.684,584.073,"176","N/A",58.120,-84.632,565.386101,21.494,-87.073,552.851538,38.834,-104.821,-0.000000,38.834,-104.821,-0.000000,"176","N/A","To Place Colorado_Springs","From Satellite Leo_Sat11","No Parent","No Parent"
1 Feb 2024 10:28:58.767,1 Feb 2024 10:41:04.922,726.154,"177","N/A",62.038,-108.381,566.654442,16.500,-111.415,551.712526,38.834,-104.821,-0.000000,38.834,-104.821,-0.000000,"177","N/A","To Place Colorado_Springs","From Satellite Leo_Sat11","No Parent","No Parent"
1 Feb 2024 12:07:42.873,1 Feb 2024 12:11:29.868,226.995,"178","N/A",50.964,-133.133,562.862002,36.741,-134.081,557.613667,38.834,-104.821,-0.000000,38.834,-104.821,-0.000000,"178","N/A","To Place Colorado_Springs","From Satellite Leo_Sat11","No Parent","No Parent"
1 Feb 2024 21:13:14.489,1 Feb 2024 21:24:10.732,656.243,"184","N/A",19.713,-89.888,552.416145,60.860,-92.630,566.283594,38.834,-104.821,-0.000000,38.834,-104.821,-0.000000,"184","N/A","To Place Colorado_Springs","From Satellite Leo_Sat11","No Parent","No Parent"
1 Feb 2024 22:48:20.148,1 Feb 2024 22:59:58.917,698.769,"185","N/A",17.117,-113.727,551.839213,60.941,-116.646,566.309265,38.834,-104.821,-0.000000,38.834,-104.821,-0.000000,"185","N/A","To Place Colorado_Springs","From Satellite Leo_Sat11","No Parent","No Parent"
2 Feb 2024 08:50:56.770,2 Feb 2024 09:00:44.017,587.247,"191","N/A",58.199,-84.792,565.412332,21.373,-87.245,552.820981,38.834,-104.821,-0.000000,38.834,-104.821,-0.000000,"191","N/A","To Place Colorado_Springs","From Satellite Leo_Sat11","No Parent","No Parent"
2 Feb 2024 10:25:42.333,2 Feb 2024 10:37:47.745,725.412,"192","N/A",62.029,-108.546,566.651411,16.537,-111.577,551.719989,38.834,-104.821,-0.000000,38.834,-104.821,-0.000000,"192","N/A","To Place Colorado_Springs","From Satellite Leo_Sat11","No Parent","No Parent"
2 Feb 2024 12:04:31.592,2 Feb 2024 12:08:06.363,214.771,"193","N/A",50.632,-133.319,562.740341,37.175,-134.217,557.768924,38.834,-104.821,-0.000000,38.834,-104.821,-0.000000,"193","N/A","To Place Colorado_Springs","From Satellite Leo_Sat11","No Parent","No Parent"
2 Feb 2024 21:09:56.494,2 Feb 2024 21:20:54.736,658.242,"199","N/A",19.624,-90.046,552.395365,60.897,-92.797,566.295419,38.834,-104.821,-0.000000,38.834,-104.821,-0.000000,"199","N/A","To Place Colorado_Springs","From Satellite Leo_Sat11","No Parent","No Parent"
2 Feb 2024 22:45:04.391,2 Feb 2024 22:56:41.761,697.370,"200","N/A",17.169,-113.894,551.850169,60.905,-116.808,566.298023,38.834,-104.821,-0.000000,38.834,-104.821,-0.000000,"200","N/A","To Place Colorado_Springs","From Satellite Leo_Sat11","No Parent","No Parent"
3 Feb 2024 08:47:38.948,3 Feb 2024 08:57:29.324,590.376,"206","N/A",58.275,-84.951,565.438118,21.254,-87.417,552.790969,38.834,-104.821,-0.000000,38.834,-104.821,-0.000000,"206","N/A","To Place Colorado_Springs","From Satellite Leo_Sat11","No Parent","No Parent"
3 Feb 2024 10:22:25.907,3 Feb 2024 10:34:30.553,724.646,"207","N/A",62.018,-108.711,566.648217,16.575,-111.739,551.727648,38.834,-104.821,-0.000000,38.834,-104.821,-0.000000,"207","N/A","To Place Colorado_Springs","From Satellite Leo_Sat11","No Parent","No Parent"
3 Feb 2024 12:01:20.707,3 Feb 2024 12:04:42.450,201.743,"208","N/A",50.275,-133.507,562.609311,37.634,-134.350,557.934069,38.834,-104.821,-0.000000,38.834,-104.821,-0.000000,"208","N/A","To Place Colorado_Springs","From Satellite Leo_Sat11","No Parent","No Parent"
3 Feb 2024 21:06:38.518,3 Feb 2024 21:17:38.724,660.206,"214","N/A",19.537,-90.205,552.374933,60.933,-92.963,566.306933,38.834,-104.821,-0.000000,38.834,-104.821,-0.000000,"214","N/A","To Place Colorado_Springs","From Satellite Leo_Sat11","No Parent","No Parent"
3 Feb 2024 22:41:48.650,3 Feb 2024 22:53:24.596,695.946,"215","N/A",17.223,-114.062,551.861383,60.869,-116.970,566.286605,38.834,-104.821,-0.000000,38.834,-104.821,-0.000000,"215","N/A","To Place Colorado_Springs","From Satellite Leo_Sat11","No Parent","No Parent"
4 Feb 2024 08:44:21.145,4 Feb 2024 08:54:14.603,593.458,"221","N/A",58.351,-85.110,565.463469,21.136,-87.589,552.761527,38.834,-104.821,-0.000000,38.834,-104.821,-0.000000,"221","N/A","To Place Colorado_Springs","From Satellite Leo_Sat11","No Parent","No Parent"
4 Feb 2024 10:19:09.488,4 Feb 2024 10:31:13.347,723.859,"222","N/A",62.008,-108.876,566.644878,16.613,-111.901,551.735510,38.834,-104.821,-0.000000,38.834,-104.821,-0.000000,"222","N/A","To Place Colorado_Springs","From Satellite Leo_Sat11","No Parent","No Parent"
4 Feb 2024 11:58:10.305,4 Feb 2024 12:01:18.044,187.739,"223","N/A",49.887,-133.697,562.466855,38.124,-134.482,558.111102,38.834,-104.821,-0.000000,38.834,-104.821,-0.000000,"223","N/A","To Place Colorado_Springs","From Satellite Leo_Sat11","No Parent","No Parent"
4 Feb 2024 21:03:20.559,4 Feb 2024 21:14:22.707,662.148,"229","N/A",19.451,-90.363,552.354841,60.969,-93.130,566.318330,38.834,-104.821,-0.000000,38.834,-104.821,-0.000000,"229","N/A","To Place Colorado_Springs","From Satellite Leo_Sat11","No Parent","No Parent"
4 Feb 2024 22:38:32.927,4 Feb 2024 22:50:07.420,694.493,"230","N/A",17.278,-114.230,551.872856,60.833,-117.132,566.274946,38.834,-104.821,-0.000000,38.834,-104.821,-0.000000,"230","N/A","To Place Colorado_Springs","From Satellite Leo_Sat11","No Parent","No Parent"
5 Feb 2024 08:41:03.361,5 Feb 2024 08:50:59.856,596.495,"236","N/A",58.426,-85.269,565.488393,21.020,-87.761,552.732637,38.834,-104.821,-0.000000,38.834,-104.821,-0.000000,"236","N/A","To Place Colorado_Springs","From Satellite Leo_Sat11","No Parent","No Parent"
5 Feb 2024 10:15:53.077,5 Feb 2024 10:27:56.127,723.050,"237","N/A",61.996,-109.041,566.641399,16.653,-112.062,551.743578,38.834,-104.821,-0.000000,38.834,-104.821,-0.000000,"237","N/A","To Place Colorado_Springs","From Satellite Leo_Sat11","No Parent","No Parent"
5 Feb 2024 11:55:00.499,5 Feb 2024 11:57:53.022,172.523,"238","N/A",49.463,-133.890,562.310275,38.653,-134.611,558.302908,38.834,-104.821,-0.000000,38.834,-104.821,-0.000000,"238","N/A","To Place Colorado_Springs","From Satellite Leo_Sat11","No Parent","No Parent"
5 Feb 2024 21:00:02.623,5 Feb 2024 21:11:06.684,664.061,"244","N/A",19.366,-90.522,552.335149,61.004,-93.297,566.329592,38.834,-104.821,-0.000000,38.834,-104.821,-0.000000,"244","N/A","To Place Colorado_Springs","From Satellite Leo_Sat11","No Parent","No Parent"
5 Feb 2024 22:35:17.221,5 Feb 2024 22:46:50.235,693.014,"245","N/A",17.333,-114.398,551.884592,60.796,-117.294,566.263123,38.834,-104.821,-0.000000,38.834,-104.821,-0.000000,"245","N/A","To Place Colorado_Springs","From Satellite Leo_Sat11","No Parent","No Parent"
6 Feb 2024 08:37:45.595,6 Feb 2024 08:47:45.082,599.486,"251","N/A",58.499,-85.428,565.512899,20.906,-87.933,552.704294,38.834,-104.821,-0.000000,38.834,-104.821,-0.000000,"251","N/A","To Place Colorado_Springs","From Satellite Leo_Sat11","No Parent","No Parent"
6 Feb 2024 10:12:36.673,6 Feb 2024 10:24:38.891,722.218,"252","N/A",61.985,-109.206,566.637775,16.694,-112.224,551.751851,38.834,-104.821,-0.000000,38.834,-104.821,-0.000000,"252","N/A","To Place Colorado_Springs","From Satellite Leo_Sat11","No Parent","No Parent"
6 Feb 2024 11:51:51.477,6 Feb 2024 11:54:27.218,155.741,"253","N/A",48.989,-134.086,562.135188,39.231,-134.737,558.513440,38.834,-104.821,-0.000000,38.834,-104.821,-0.000000,"253","N/A","To Place Colorado_Springs","From Satellite Leo_Sat11","No Parent","No Parent"
6 Feb 2024 20:56:44.700,6 Feb 2024 21:07:50.646,665.945,"259","N/A",19.283,-90.681,552.315725,61.039,-93.463,566.340559,38.834,-104.821,-0.000000,38.834,-104.821,-0.000000,"259","N/A","To Place Colorado_Springs","From Satellite Leo_Sat11","No Parent","No Parent"
6 Feb 2024 22:32:01.533,6 Feb 2024 22:43:33.040,691.507,"260","N/A",17.390,-114.566,551.896596,60.758,-117.455,566.251060,38.834,-104.821,-0.000000,38.834,-104.821,-0.000000,"260","N/A","To Place Colorado_Springs","From Satellite Leo_Sat11","No Parent","No Parent"
7 Feb 2024 08:34:27.848,7 Feb 2024 08:44:30.281,602.433,"266","N/A",58.571,-85.588,565.536995,20.793,-88.105,552.676486,38.834,-104.821,-0.000000,38.834,-104.821,-0.000000,"266","N/A","To Place Colorado_Springs","From Satellite Leo_Sat11","No Parent","No Parent"
7 Feb 2024 10:09:20.276,7 Feb 2024 10:21:21.640,721.365,"267","N/A",61.973,-109.371,566.634006,16.735,-112.385,551.760333,38.834,-104.821,-0.000000,38.834,-104.821,-0.000000,"267","N/A","To Place Colorado_Springs","From Satellite Leo_Sat11","No Parent","No Parent"
7 Feb 2024 11:48:43.525,7 Feb 2024 11:51:00.336,136.810,"268","N/A",48.448,-134.286,561.934863,39.877,-134.858,558.749638,38.834,-104.821,-0.000000,38.834,-104.821,-0.000000,"268","N/A","To Place Colorado_Springs","From Satellite Leo_Sat11","No Parent","No Parent"
7 Feb 2024 20:53:26.795,7 Feb 2024 21:04:34.597,667.803,"274","N/A",19.200,-90.839,552.296630,61.073,-93.630,566.351321,38.834,-104.821,-0.000000,38.834,-104.821,-0.000000,"274","N/A","To Place Colorado_Springs","From Satellite Leo_Sat11","No Parent","No Parent"
7 Feb 2024 22:28:45.862,7 Feb 2024 22:40:15.834,689.972,"275","N/A",17.448,-114.734,551.908870,60.720,-117.617,566.238795,38.834,-104.821,-0.000000,38.834,-104.821,-0.000000,"275","N/A","To Place Colorado_Springs","From Satellite Leo_Sat11","No Parent","No Parent"
8 Feb 2024 08:31:10.118,8 Feb 2024 08:41:15.454,605.336,"281","N/A",58.642,-85.747,565.560688,20.682,-88.277,552.649204,38.834,-104.821,-0.000000,38.834,-104.821,-0.000000,"281","N/A","To Place Colorado_Springs","From Satellite Leo_Sat11","No Parent","No Parent"
8 Feb 2024 10:06:03.886,8 Feb 2024 10:18:04.375,720.489,"282","N/A",61.960,-109.536,566.630092,16.777,-112.547,551.769024,38.834,-104.821,-0.000000,38.834,-104.821,-0.000000,"282","N/A","To Place Colorado_Springs","From Satellite Leo_Sat11","No Parent","No Parent"
8 Feb 2024 11:45:37.162,8 Feb 2024 11:47:31.854,114.692,"283","N/A",47.808,-134.493,561.697124,40.622,-134.972,559.023747,38.834,-104.821,-0.000000,38.834,-104.821,-0.000000,"283","N/A","To Place Colorado_Springs","From Satellite Leo_Sat11","No Parent","No Parent"
8 Feb 2024 20:50:08.907,8 Feb 2024 21:01:18.535,669.627,"289","N/A",19.118,-90.998,552.277857,61.106,-93.796,566.361781,38.834,-104.821,-0.000000,38.834,-104.821,-0.000000,"289","N/A","To Place Colorado_Springs","From Satellite Leo_Sat11","No Parent","No Parent"
8 Feb 2024 22:25:30.209,8 Feb 2024 22:36:58.620,688.411,"290","N/A",17.507,-114.902,551.921421,60.681,-117.779,566.226353,38.834,-104.821,-0.000000,38.834,-104.821,-0.000000,"290","N/A","To Place Colorado_Springs","From Satellite Leo_Sat11","No Parent","No Parent"
9 Feb 2024 08:27:52.406,9 Feb 2024 08:38:00.602,608.196,"296","N/A",58.713,-85.907,565.583988,20.573,-88.448,552.622430,38.834,-104.821,-0.000000,38.834,-104.821,-0.000000,"296","N/A","To Place Colorado_Springs","From Satellite Leo_Sat11","No Parent","No Parent"
9 Feb 2024 10:02:47.505,9 Feb 2024 10:14:47.095,719.591,"297","N/A",61.947,-109.701,566.626033,16.821,-112.708,551.777926,38.834,-104.821,-0.000000,38.834,-104.821,-0.000000,"297","N/A","To Place Colorado_Springs","From Satellite Leo_Sat11","No Parent","No Parent"
9 Feb 2024 11:42:33.600,9 Feb 2024 11:44:00.558,86.959,"298","N/A",46.992,-134.712,561.393550,41.544,-135.075,559.364250,38.834,-104.821,-0.000000,38.834,-104.821,-0.000000,"298","N/A","To Place Colorado_Springs","From Satellite Leo_Sat11","No Parent","No Parent"
9 Feb 2024 20:46:51.037,9 Feb 2024 20:58:02.472,671.435,"304","N/A",19.038,-91.157,552.259404,61.139,-93.963,566.372231,38.834,-104.821,-0.000000,38.834,-104.821,-0.000000,"304","N/A","To Place Colorado_Springs","From Satellite Leo_Sat11","No Parent","No Parent"
9 Feb 2024 22:22:14.574,9 Feb 2024 22:33:41.395,686.821,"305","N/A",17.567,-115.070,551.934242,60.641,-117.940,566.213683,38.834,-104.821,-0.000000,38.834,-104.821,-0.000000,"305","N/A","To Place Colorado_Springs","From Satellite Leo_Sat11","No Parent","No Parent"
10 Feb 2024 08:24:34.715,10 Feb 2024 08:34:45.724,611.008,"311","N/A",58.781,-86.066,565.606818,20.465,-88.619,552.596172,38.834,-104.821,-0.000000,38.834,-104.821,-0.000000,"311","N/A","To Place Colorado_Springs","From Satellite Leo_Sat11","No Parent","No Parent"
10 Feb 2024 09:59:31.130,10 Feb 2024 10:11:29.801,718.670,"312","N/A",61.933,-109.866,566.621824,16.865,-112.869,551.787041,38.834,-104.821,-0.000000,38.834,-104.821,-0.000000,"312","N/A","To Place Colorado_Springs","From Satellite Leo_Sat11","No Parent","No Parent"
10 Feb 2024 11:39:37.609,10 Feb 2024 11:40:21.689,44.080,"313","N/A",45.702,-134.962,560.912464,42.941,-135.146,559.882584,38.834,-104.821,-0.000000,38.834,-104.821,-0.000000,"313","N/A","To Place Colorado_Springs","From Satellite Leo_Sat11","No Parent","No Parent"
10 Feb 2024 20:43:33.185,10 Feb 2024 20:54:46.390,673.205,"319","N/A",18.958,-91.316,552.241266,61.171,-94.129,566.382298,38.834,-104.821,-0.000000,38.834,-104.821,-0.000000,"319","N/A","To Place Colorado_Springs","From Satellite Leo_Sat11","No Parent","No Parent"
10 Feb 2024 22:18:58.957,10 Feb 2024 22:30:24.163,685.205,"320","N/A",17.629,-115.239,551.947351,60.601,-118.102,566.200833,38.834,-104.821,-0.000000,38.834,-104.821,-0.000000,"320","N/A","To Place Colorado_Springs","From Satellite Leo_Sat11","No Parent","No Parent"
11 Feb 2024 08:21:17.033,11 Feb 2024 08:31:30.824,613.791,"326","N/A",58.849,-86.226,565.629445,20.359,-88.791,552.570365,38.834,-104.821,-0.000000,38.834,-104.821,-0.000000,"326","N/A","To Place Colorado_Springs","From Satellite Leo_Sat11","No Parent","No Parent"
11 Feb 2024 09:56:14.764,11 Feb 2024 10:08:12.491,717.727,"327","N/A",61.919,-110.032,566.617470,16.910,-113.031,551.796372,38.834,-104.821,-0.000000,38.834,-104.821,-0.000000,"327","N/A","To Place Colorado_Springs","From Satellite Leo_Sat11","No Parent","No Parent"
11 Feb 2024 20:40:15.350,11 Feb 2024 20:51:30.308,674.958,"334","N/A",18.880,-91.475,552.223440,61.202,-94.295,566.392337,38.834,-104.821,-0.000000,38.834,-104.821,-0.000000,"334","N/A","To Place Colorado_Springs","From Satellite Leo_Sat11","No Parent","No Parent"
11 Feb 2024 22:15:43.359,11 Feb 2024 22:27:06.914,683.556,"335","N/A",17.691,-115.407,551.960739,60.560,-118.263,566.187665,38.834,-104.821,-0.000000,38.834,-104.821,-0.000000,"335","N/A","To Place Colorado_Springs","From Satellite Leo_Sat11","No Parent","No Parent"
12 Feb 2024 08:17:59.372,12 Feb 2024 08:28:15.897,616.525,"341","N/A",58.916,-86.386,565.651617,20.254,-88.962,552.545084,38.834,-104.821,-0.000000,38.834,-104.821,-0.000000,"341","N/A","To Place Colorado_Springs","From Satellite Leo_Sat11","No Parent","No Parent"
12 Feb 2024 09:52:58.405,12 Feb 2024 10:04:55.167,716.762,"342","N/A",61.905,-110.197,566.612963,16.957,-113.192,551.805918,38.834,-104.821,-0.000000,38.834,-104.821,-0.000000,"342","N/A","To Place Colorado_Springs","From Satellite Leo_Sat11","No Parent","No Parent"
12 Feb 2024 20:36:57.532,12 Feb 2024 20:48:14.211,676.679,"349","N/A",18.803,-91.634,552.205922,61.233,-94.462,566.402094,38.834,-104.821,-0.000000,38.834,-104.821,-0.000000,"349","N/A","To Place Colorado_Springs","From Satellite Leo_Sat11","No Parent","No Parent"
12 Feb 2024 22:12:27.778,12 Feb 2024 22:23:49.658,681.880,"350","N/A",17.755,-115.576,551.974419,60.518,-118.425,566.174325,38.834,-104.821,-0.000000,38.834,-104.821,-0.000000,"350","N/A","To Place Colorado_Springs","From Satellite Leo_Sat11","No Parent","No Parent"
13 Feb 2024 08:14:41.727,13 Feb 2024 08:25:00.945,619.218,"356","N/A",58.982,-86.546,565.673429,20.151,-89.133,552.520279,38.834,-104.821,-0.000000,38.834,-104.821,-0.000000,"356","N/A","To Place Colorado_Springs","From Satellite Leo_Sat11","No Parent","No Parent"
13 Feb 2024 09:49:42.057,13 Feb 2024 10:01:37.828,715.771,"357","N/A",61.890,-110.362,566.608244,17.004,-113.353,551.815683,38.834,-104.821,-0.000000,38.834,-104.821,-0.000000,"357","N/A","To Place Colorado_Springs","From Satellite Leo_Sat11","No Parent","No Parent"
13 Feb 2024 20:33:39.731,13 Feb 2024 20:44:58.105,678.374,"364","N/A",18.726,-91.793,552.188708,61.263,-94.628,566.411656,38.834,-104.821,-0.000000,38.834,-104.821,-0.000000,"364","N/A","To Place Colorado_Springs","From Satellite Leo_Sat11","No Parent","No Parent"
13 Feb 2024 22:09:12.217,13 Feb 2024 22:20:32.392,680.175,"365","N/A",17.819,-115.744,551.988391,60.476,-118.586,566.160760,38.834,-104.821,-0.000000,38.834,-104.821,-0.000000,"365","N/A","To Place Colorado_Springs","From Satellite Leo_Sat11","No Parent","No Parent"
14 Feb 2024 08:11:24.097,14 Feb 2024 08:21:45.964,621.867,"371","N/A",59.047,-86.706,565.694887,20.049,-89.304,552.496014,38.834,-104.821,-0.000000,38.834,-104.821,-0.000000,"371","N/A","To Place Colorado_Springs","From Satellite Leo_Sat11","No Parent","No Parent"
14 Feb 2024 09:46:25.711,14 Feb 2024 09:58:20.473,714.763,"372","N/A",61.875,-110.527,566.603497,17.052,-113.514,551.825669,38.834,-104.821,-0.000000,38.834,-104.821,-0.000000,"372","N/A","To Place Colorado_Springs","From Satellite Leo_Sat11","No Parent","No Parent"
14 Feb 2024 20:30:21.947,14 Feb 2024 20:41:41.989,680.042,"379","N/A",18.651,-91.953,552.171793,61.293,-94.794,566.421026,38.834,-104.821,-0.000000,38.834,-104.821,-0.000000,"379","N/A","To Place Colorado_Springs","From Satellite Leo_Sat11","No Parent","No Parent"
14 Feb 2024 22:05:56.673,14 Feb 2024 22:17:15.114,678.441,"380","N/A",17.885,-115.913,552.002659,60.433,-118.748,566.146969,38.834,-104.821,-0.000000,38.834,-104.821,-0.000000,"380","N/A","To Place Colorado_Springs","From Satellite Leo_Sat11","No Parent","No Parent"
15 Feb 2024 08:08:06.483,15 Feb 2024 08:18:30.965,624.482,"386","N/A",59.111,-86.865,565.715997,19.949,-89.475,552.472129,38.834,-104.821,-0.000000,38.834,-104.821,-0.000000,"386","N/A","To Place Colorado_Springs","From Satellite Leo_Sat11","No Parent","No Parent"
15 Feb 2024 09:43:09.375,15 Feb 2024 09:55:03.104,713.729,"387","N/A",61.859,-110.693,566.598533,17.101,-113.675,551.835878,38.834,-104.821,-0.000000,38.834,-104.821,-0.000000,"387","N/A","To Place Colorado_Springs","From Satellite Leo_Sat11","No Parent","No Parent"
15 Feb 2024 20:27:04.180,15 Feb 2024 20:38:25.864,681.685,"394","N/A",18.577,-92.112,552.155174,61.322,-94.960,566.430206,38.834,-104.821,-0.000000,38.834,-104.821,-0.000000,"394","N/A","To Place Colorado_Springs","From Satellite Leo_Sat11","No Parent","No Parent"
15 Feb 2024 22:02:41.148,15 Feb 2024 22:13:57.826,676.677,"395","N/A",17.952,-116.082,552.017229,60.390,-118.909,566.132947,38.834,-104.821,-0.000000,38.834,-104.821,-0.000000,"395","N/A","To Place Colorado_Springs","From Satellite Leo_Sat11","No Parent","No Parent"
16 Feb 2024 08:04:48.885,16 Feb 2024 08:15:15.943,627.059,"401","N/A",59.174,-87.026,565.736765,19.850,-89.646,552.448682,38.834,-104.821,-0.000000,38.834,-104.821,-0.000000,"401","N/A","To Place Colorado_Springs","From Satellite Leo_Sat11","No Parent","No Parent"
16 Feb 2024 09:39:53.047,16 Feb 2024 09:51:45.719,712.672,"402","N/A",61.842,-110.858,566.593414,17.151,-113.836,551.846312,38.834,-104.821,-0.000000,38.834,-104.821,-0.000000,"402","N/A","To Place Colorado_Springs","From Satellite Leo_Sat11","No Parent","No Parent"
16 Feb 2024 20:23:46.429,16 Feb 2024 20:35:09.730,683.301,"409","N/A",18.504,-92.271,552.138844,61.351,-95.127,566.439198,38.834,-104.821,-0.000000,38.834,-104.821,-0.000000,"409","N/A","To Place Colorado_Springs","From Satellite Leo_Sat11","No Parent","No Parent"
16 Feb 2024 21:59:25.642,16 Feb 2024 22:10:40.526,674.884,"410","N/A",18.021,-116.250,552.032104,60.345,-119.070,566.118692,38.834,-104.821,-0.000000,38.834,-104.821,-0.000000,"410","N/A","To Place Colorado_Springs","From Satellite Leo_Sat11","No Parent","No Parent"
17 Feb 2024 08:01:31.301,17 Feb 2024 08:12:00.899,629.598,"416","N/A",59.236,-87.186,565.757195,19.753,-89.816,552.425663,38.834,-104.821,-0.000000,38.834,-104.821,-0.000000,"416","N/A","To Place Colorado_Springs","From Satellite Leo_Sat11","No Parent","No Parent"
17 Feb 2024 09:36:36.728,17 Feb 2024 09:48:28.318,711.590,"417","N/A",61.825,-111.023,566.588130,17.202,-113.997,551.856990,38.834,-104.821,-0.000000,38.834,-104.821,-0.000000,"417","N/A","To Place Colorado_Springs","From Satellite Leo_Sat11","No Parent","No Parent"
17 Feb 2024 20:20:28.695,17 Feb 2024 20:31:53.587,684.891,"424","N/A",18.432,-92.431,552.122805,61.379,-95.293,566.448005,38.834,-104.821,-0.000000,38.834,-104.821,-0.000000,"424","N/A","To Place Colorado_Springs","From Satellite Leo_Sat11","No Parent","No Parent"
17 Feb 2024 21:56:10.155,17 Feb 2024 22:07:23.215,673.061,"425","N/A",18.090,-116.419,552.047289,60.300,-119.231,566.104198,38.834,-104.821,-0.000000,38.834,-104.821,-0.000000,"425","N/A","To Place Colorado_Springs","From Satellite Leo_Sat11","No Parent","No Parent"
18 Feb 2024 07:58:13.732,18 Feb 2024 08:08:45.829,632.096,"431","N/A",59.297,-87.346,565.777295,19.657,-89.987,552.403118,38.834,-104.821,-0.000000,38.834,-104.821,-0.000000,"431","N/A","To Place Colorado_Springs","From Satellite Leo_Sat11","No Parent","No Parent"
18 Feb 2024 09:33:20.417,18 Feb 2024 09:45:10.904,710.487,"432","N/A",61.808,-111.189,566.582673,17.254,-114.157,551.867862,38.834,-104.821,-0.000000,38.834,-104.821,-0.000000,"432","N/A","To Place Colorado_Springs","From Satellite Leo_Sat11","No Parent","No Parent"
18 Feb 2024 20:17:10.978,18 Feb 2024 20:28:37.434,686.456,"439","N/A",18.361,-92.590,552.107059,61.406,-95.459,566.456628,38.834,-104.821,-0.000000,38.834,-104.821,-0.000000,"439","N/A","To Place Colorado_Springs","From Satellite Leo_Sat11","No Parent","No Parent"
18 Feb 2024 21:52:54.688,18 Feb 2024 22:04:05.893,671.205,"440","N/A",18.161,-116.588,552.062816,60.255,-119.393,566.089463,38.834,-104.821,-0.000000,38.834,-104.821,-0.000000,"440","N/A","To Place Colorado_Springs","From Satellite Leo_Sat11","No Parent","No Parent"
19 Feb 2024 07:54:56.179,19 Feb 2024 08:05:30.736,634.557,"446","N/A",59.357,-87.506,565.797068,19.563,-90.157,552.381002,38.834,-104.821,-0.000000,38.834,-104.821,-0.000000,"446","N/A","To Place Colorado_Springs","From Satellite Leo_Sat11","No Parent","No Parent"
19 Feb 2024 09:30:04.113,19 Feb 2024 09:41:53.473,709.361,"447","N/A",61.790,-111.354,566.577087,17.307,-114.318,551.878985,38.834,-104.821,-0.000000,38.834,-104.821,-0.000000,"447","N/A","To Place Colorado_Springs","From Satellite Leo_Sat11","No Parent","No Parent"
19 Feb 2024 20:13:53.278,19 Feb 2024 20:25:21.273,687.995,"454","N/A",18.292,-92.750,552.091588,61.433,-95.625,566.465070,38.834,-104.821,-0.000000,38.834,-104.821,-0.000000,"454","N/A","To Place Colorado_Springs","From Satellite Leo_Sat11","No Parent","No Parent"
19 Feb 2024 21:49:39.242,19 Feb 2024 22:00:48.562,669.320,"455","N/A",18.233,-116.757,552.078671,60.209,-119.554,566.074538,38.834,-104.821,-0.000000,38.834,-104.821,-0.000000,"455","N/A","To Place Colorado_Springs","From Satellite Leo_Sat11","No Parent","No Parent"
20 Feb 2024 07:51:38.639,20 Feb 2024 08:02:15.620,636.981,"461","N/A",59.416,-87.666,565.816521,19.470,-90.328,552.359305,38.834,-104.821,-0.000000,38.834,-104.821,-0.000000,"461","N/A","To Place Colorado_Springs","From Satellite Leo_Sat11","No Parent","No Parent"
20 Feb 2024 09:26:47.815,20 Feb 2024 09:38:36.027,708.212,"462","N/A",61.772,-111.520,566.571372,17.361,-114.479,551.890349,38.834,-104.821,-0.000000,38.834,-104.821,-0.000000,"462","N/A","To Place Colorado_Springs","From Satellite Leo_Sat11","No Parent","No Parent"
20 Feb 2024 20:10:35.593,20 Feb 2024 20:22:05.102,689.509,"469","N/A",18.223,-92.910,552.076395,61.459,-95.791,566.473333,38.834,-104.821,-0.000000,38.834,-104.821,-0.000000,"469","N/A","To Place Colorado_Springs","From Satellite Leo_Sat11","No Parent","No Parent"
20 Feb 2024 21:46:23.812,20 Feb 2024 21:57:31.217,667.405,"470","N/A",18.306,-116.926,552.094804,60.162,-119.715,566.059309,38.834,-104.821,-0.000000,38.834,-104.821,-0.000000,"470","N/A","To Place Colorado_Springs","From Satellite Leo_Sat11","No Parent","No Parent"
21 Feb 2024 07:48:21.114,21 Feb 2024 07:59:00.483,639.368,"476","N/A",59.475,-87.827,565.835660,19.379,-90.498,552.338022,38.834,-104.821,-0.000000,38.834,-104.821,-0.000000,"476","N/A","To Place Colorado_Springs","From Satellite Leo_Sat11","No Parent","No Parent"
21 Feb 2024 09:23:31.527,21 Feb 2024 09:35:18.565,707.038,"477","N/A",61.753,-111.685,566.565464,17.415,-114.639,551.901953,38.834,-104.821,-0.000000,38.834,-104.821,-0.000000,"477","N/A","To Place Colorado_Springs","From Satellite Leo_Sat11","No Parent","No Parent"
20 Jan 2024 21:42:42.884,20 Jan 2024 21:52:29.520,586.636,"4","N/A",22.724,-85.449,553.169769,59.501,-87.900,565.844333,38.834,-104.821,-0.000000,38.834,-104.821,-0.000000,"4","N/A","To Place Colorado_Springs","From Satellite Leo_Sat12","No Parent","No Parent"
20 Jan 2024 23:16:43.924,20 Jan 2024 23:28:51.760,727.837,"5","N/A",16.061,-109.018,551.624964,61.708,-112.059,566.551578,38.834,-104.821,-0.000000,38.834,-104.821,-0.000000,"5","N/A","To Place Colorado_Springs","From Satellite Leo_Sat12","No Parent","No Parent"
21 Jan 2024 00:58:22.915,21 Jan 2024 01:00:19.800,116.885,"6","N/A",38.195,-134.500,558.136727,45.522,-134.988,560.845235,38.834,-104.821,-0.000000,38.834,-104.821,-0.000000,"6","N/A","To Place Colorado_Springs","From Satellite Leo_Sat12","No Parent","No Parent"
21 Jan 2024 09:20:22.198,21 Jan 2024 09:28:17.270,475.072,"11","N/A",55.394,-80.340,564.450413,25.606,-82.325,553.968896,38.834,-104.821,-0.000000,38.834,-104.821,-0.000000,"11","N/A","To Place Colorado_Springs","From Satellite Leo_Sat12","No Parent","No Parent"
21 Jan 2024 10:54:21.184,21 Jan 2024 11:06:39.297,738.113,"12","N/A",62.134,-103.901,566.684207,15.844,-106.984,551.582362,38.834,-104.821,-0.000000,38.834,-104.821,-0.000000,"12","N/A","To Place Colorado_Springs","From Satellite Leo_Sat12","No Parent","No Parent"
21 Jan 2024 12:31:43.846,21 Jan 2024 12:38:57.118,433.272,"13","N/A",56.153,-128.312,564.714563,28.998,-130.122,554.995338,38.834,-104.821,-0.000000,38.834,-104.821,-0.000000,"13","N/A","To Place Colorado_Springs","From Satellite Leo_Sat12","No Parent","No Parent"
21 Jan 2024 21:39:24.299,21 Jan 2024 21:49:13.887,589.588,"19","N/A",22.598,-85.605,553.136653,59.561,-88.068,565.863929,38.834,-104.821,-0.000000,38.834,-104.821,-0.000000,"19","N/A","To Place Colorado_Springs","From Satellite Leo_Sat12","No Parent","No Parent"
21 Jan 2024 23:13:27.713,21 Jan 2024 23:25:34.850,727.136,"20","N/A",16.085,-109.184,551.629687,61.688,-112.222,566.545327,38.834,-104.821,-0.000000,38.834,-104.821,-0.000000,"20","N/A","To Place Colorado_Springs","From Satellite Leo_Sat12","No Parent","No Parent"
22 Jan 2024 00:55:22.434,22 Jan 2024 00:56:48.406,85.971,"21","N/A",39.206,-134.731,558.504173,44.595,-135.091,560.499151,38.834,-104.821,-0.000000,38.834,-104.821,-0.000000,"21","N/A","To Place Colorado_Springs","From Satellite Leo_Sat12","No Parent","No Parent"
22 Jan 2024 09:17:03.586,22 Jan 2024 09:25:03.610,480.024,"26","N/A",55.520,-80.496,564.494572,25.422,-82.502,553.915678,38.834,-104.821,-0.000000,38.834,-104.821,-0.000000,"26","N/A","To Place Colorado_Springs","From Satellite Leo_Sat12","No Parent","No Parent"
22 Jan 2024 10:51:04.554,22 Jan 2024 11:03:22.515,737.961,"27","N/A",62.137,-104.065,566.684969,15.856,-107.148,551.584704,38.834,-104.821,-0.000000,38.834,-104.821,-0.000000,"27","N/A","To Place Colorado_Springs","From Satellite Leo_Sat12","No Parent","No Parent"
22 Jan 2024 12:28:29.263,22 Jan 2024 12:35:37.164,427.901,"28","N/A",56.027,-128.484,564.671052,29.209,-130.272,555.062098,38.834,-104.821,-0.000000,38.834,-104.821,-0.000000,"28","N/A","To Place Colorado_Springs","From Satellite Leo_Sat12","No Parent","No Parent"
22 Jan 2024 21:36:05.742,22 Jan 2024 21:45:58.235,592.493,"34","N/A",22.475,-85.761,553.104149,59.620,-88.237,565.883103,38.834,-104.821,-0.000000,38.834,-104.821,-0.000000,"34","N/A","To Place Colorado_Springs","From Satellite Leo_Sat12","No Parent","No Parent"
22 Jan 2024 23:10:11.514,22 Jan 2024 23:22:17.928,726.414,"35","N/A",16.110,-109.349,551.634560,61.668,-112.384,566.538860,38.834,-104.821,-0.000000,38.834,-104.821,-0.000000,"35","N/A","To Place Colorado_Springs","From Satellite Leo_Sat12","No Parent","No Parent"
23 Jan 2024 00:52:33.053,23 Jan 2024 00:53:05.918,32.865,"36","N/A",40.912,-135.009,559.130635,42.972,-135.147,559.894353,38.834,-104.821,-0.000000,38.834,-104.821,-0.000000,"36","N/A","To Place Colorado_Springs","From Satellite Leo_Sat12","No Parent","No Parent"
23 Jan 2024 09:13:45.020,23 Jan 2024 09:21:49.902,484.882,"41","N/A",55.644,-80.652,564.537666,25.241,-82.678,553.863607,38.834,-104.821,-0.000000,38.834,-104.821,-0.000000,"41","N/A","To Place Colorado_Springs","From Satellite Leo_Sat12","No Parent","No Parent"
23 Jan 2024 10:47:47.934,23 Jan 2024 11:00:05.715,737.781,"42","N/A",62.139,-104.229,566.685528,15.869,-107.311,551.587277,38.834,-104.821,-0.000000,38.834,-104.821,-0.000000,"42","N/A","To Place Colorado_Springs","From Satellite Leo_Sat12","No Parent","No Parent"
23 Jan 2024 12:25:14.723,23 Jan 2024 12:32:17.149,422.426,"43","N/A",55.899,-128.657,564.626552,29.424,-130.422,555.130409,38.834,-104.821,-0.000000,38.834,-104.821,-0.000000,"43","N/A","To Place Colorado_Springs","From Satellite Leo_Sat12","No Parent","No Parent"
23 Jan 2024 21:32:47.209,23 Jan 2024 21:42:42.571,595.363,"49","N/A",22.353,-85.917,553.072172,59.678,-88.405,565.902027,38.834,-104.821,-0.000000,38.834,-104.821,-0.000000,"49","N/A","To Place Colorado_Springs","From Satellite Leo_Sat12","No Parent","No Parent"
23 Jan 2024 23:06:55.334,23 Jan 2024 23:19:00.998,725.665,"50","N/A",16.135,-109.515,551.639674,61.647,-112.547,566.532238,38.834,-104.821,-0.000000,38.834,-104.821,-0.000000,"50","N/A","To Place Colorado_Springs","From Satellite Leo_Sat12","No Parent","No Parent"
24 Jan 2024 09:10:26.491,24 Jan 2024 09:18:36.144,489.653,"56","N/A",55.765,-80.808,564.579865,25.063,-82.854,553.812682,38.834,-104.821,-0.000000,38.834,-104.821,-0.000000,"56","N/A","To Place Colorado_Springs","From Satellite Leo_Sat12","No Parent","No Parent"
24 Jan 2024 10:44:31.322,24 Jan 2024 10:56:48.900,737.579,"57","N/A",62.140,-104.393,566.685949,15.883,-107.475,551.590026,38.834,-104.821,-0.000000,38.834,-104.821,-0.000000,"57","N/A","To Place Colorado_Springs","From Satellite Leo_Sat12","No Parent","No Parent"
24 Jan 2024 12:22:00.231,24 Jan 2024 12:28:57.076,416.845,"58","N/A",55.768,-128.830,564.580914,29.643,-130.572,555.200172,38.834,-104.821,-0.000000,38.834,-104.821,-0.000000,"58","N/A","To Place Colorado_Springs","From Satellite Leo_Sat12","No Parent","No Parent"
24 Jan 2024 21:29:28.699,24 Jan 2024 21:39:26.892,598.194,"64","N/A",22.232,-86.073,553.040713,59.735,-88.573,565.920614,38.834,-104.821,-0.000000,38.834,-104.821,-0.000000,"64","N/A","To Place Colorado_Springs","From Satellite Leo_Sat12","No Parent","No Parent"
24 Jan 2024 23:03:39.169,24 Jan 2024 23:15:44.061,724.892,"65","N/A",16.162,-109.681,551.644988,61.625,-112.710,566.525457,38.834,-104.821,-0.000000,38.834,-104.821,-0.000000,"65","N/A","To Place Colorado_Springs","From Satellite Leo_Sat12","No Parent","No Parent"
25 Jan 2024 09:07:08.001,25 Jan 2024 09:15:22.341,494.340,"71","N/A",55.883,-80.965,564.621167,24.887,-83.030,553.762855,38.834,-104.821,-0.000000,38.834,-104.821,-0.000000,"71","N/A","To Place Colorado_Springs","From Satellite Leo_Sat12","No Parent","No Parent"
25 Jan 2024 10:41:14.716,25 Jan 2024 10:53:32.071,737.355,"72","N/A",62.141,-104.557,566.686234,15.898,-107.638,551.592953,38.834,-104.821,-0.000000,38.834,-104.821,-0.000000,"72","N/A","To Place Colorado_Springs","From Satellite Leo_Sat12","No Parent","No Parent"
25 Jan 2024 12:18:45.790,25 Jan 2024 12:25:36.947,411.157,"73","N/A",55.633,-129.003,564.534086,29.865,-130.721,555.271388,38.834,-104.821,-0.000000,38.834,-104.821,-0.000000,"73","N/A","To Place Colorado_Springs","From Satellite Leo_Sat12","No Parent","No Parent"
25 Jan 2024 21:26:10.212,25 Jan 2024 21:36:11.198,600.986,"79","N/A",22.112,-86.230,553.009763,59.791,-88.741,565.938869,38.834,-104.821,-0.000000,38.834,-104.821,-0.000000,"79","N/A","To Place Colorado_Springs","From Satellite Leo_Sat12","No Parent","No Parent"
25 Jan 2024 23:00:23.019,25 Jan 2024 23:12:27.115,724.096,"80","N/A",16.190,-109.848,551.650501,61.603,-112.873,566.518518,38.834,-104.821,-0.000000,38.834,-104.821,-0.000000,"80","N/A","To Place Colorado_Springs","From Satellite Leo_Sat12","No Parent","No Parent"
26 Jan 2024 09:03:49.547,26 Jan 2024 09:12:08.492,498.945,"86","N/A",56.000,-81.121,564.661615,24.715,-83.206,553.714088,38.834,-104.821,-0.000000,38.834,-104.821,-0.000000,"86","N/A","To Place Colorado_Springs","From Satellite Leo_Sat12","No Parent","No Parent"
26 Jan 2024 10:37:58.117,26 Jan 2024 10:50:15.228,737.111,"87","N/A",62.141,-104.721,566.686384,15.914,-107.801,551.596057,38.834,-104.821,-0.000000,38.834,-104.821,-0.000000,"87","N/A","To Place Colorado_Springs","From Satellite Leo_Sat12","No Parent","No Parent"
26 Jan 2024 12:15:31.402,26 Jan 2024 12:22:16.753,405.351,"88","N/A",55.496,-129.177,564.486011,30.092,-130.870,555.344248,38.834,-104.821,-0.000000,38.834,-104.821,-0.000000,"88","N/A","To Place Colorado_Springs","From Satellite Leo_Sat12","No Parent","No Parent"
26 Jan 2024 21:22:51.747,26 Jan 2024 21:32:55.490,603.742,"94","N/A",21.995,-86.386,552.979313,59.846,-88.909,565.956818,38.834,-104.821,-0.000000,38.834,-104.821,-0.000000,"94","N/A","To Place Colorado_Springs","From Satellite Leo_Sat12","No Parent","No Parent"
26 Jan 2024 22:57:06.885,26 Jan 2024 23:09:10.162,723.277,"95","N/A",16.219,-110.014,551.656214,61.580,-113.036,566.511418,38.834,-104.821,-0.000000,38.834,-104.821,-0.000000,"95","N/A","To Place Colorado_Springs","From Satellite Leo_Sat12","No Parent","No Parent"
27 Jan 2024 09:00:31.128,27 Jan 2024 09:08:54.598,503.470,"101","N/A",56.114,-81.278,564.701235,24.545,-83.381,553.666355,38.834,-104.821,-0.000000,38.834,-104.821,-0.000000,"101","N/A","To Place Colorado_Springs","From Satellite Leo_Sat12","No Parent","No Parent"
27 Jan 2024 10:34:41.526,27 Jan 2024 10:46:58.371,736.845,"102","N/A",62.141,-104.885,566.686399,15.931,-107.964,551.599339,38.834,-104.821,-0.000000,38.834,-104.821,-0.000000,"102","N/A","To Place Colorado_Springs","From Satellite Leo_Sat12","No Parent","No Parent"
27 Jan 2024 12:12:17.070,27 Jan 2024 12:18:56.497,399.426,"103","N/A",55.355,-129.350,564.436629,30.322,-131.019,555.418724,38.834,-104.821,-0.000000,38.834,-104.821,-0.000000,"103","N/A","To Place Colorado_Springs","From Satellite Leo_Sat12","No Parent","No Parent"
27 Jan 2024 21:19:33.306,27 Jan 2024 21:29:39.766,606.461,"109","N/A",21.878,-86.543,552.949356,59.900,-89.077,565.974440,38.834,-104.821,-0.000000,38.834,-104.821,-0.000000,"109","N/A","To Place Colorado_Springs","From Satellite Leo_Sat12","No Parent","No Parent"
27 Jan 2024 22:53:50.766,27 Jan 2024 23:05:53.201,722.435,"110","N/A",16.249,-110.180,551.662130,61.557,-113.198,566.504156,38.834,-104.821,-0.000000,38.834,-104.821,-0.000000,"110","N/A","To Place Colorado_Springs","From Satellite Leo_Sat12","No Parent","No Parent"
28 Jan 2024 08:57:12.744,28 Jan 2024 09:05:40.662,507.918,"116","N/A",56.226,-81.434,564.740056,24.378,-83.557,553.619627,38.834,-104.821,-0.000000,38.834,-104.821,-0.000000,"116","N/A","To Place Colorado_Springs","From Satellite Leo_Sat12","No Parent","No Parent"
28 Jan 2024 10:31:24.941,28 Jan 2024 10:43:41.500,736.558,"117","N/A",62.141,-105.050,566.686278,15.948,-108.127,551.602800,38.834,-104.821,-0.000000,38.834,-104.821,-0.000000,"117","N/A","To Place Colorado_Springs","From Satellite Leo_Sat12","No Parent","No Parent"
28 Jan 2024 12:09:02.797,28 Jan 2024 12:15:36.173,393.376,"118","N/A",55.210,-129.524,564.385875,30.557,-131.168,555.494911,38.834,-104.821,-0.000000,38.834,-104.821,-0.000000,"118","N/A","To Place Colorado_Springs","From Satellite Leo_Sat12","No Parent","No Parent"
28 Jan 2024 21:16:14.886,28 Jan 2024 21:26:24.029,609.143,"124","N/A",21.763,-86.699,552.919883,59.953,-89.244,565.991765,38.834,-104.821,-0.000000,38.834,-104.821,-0.000000,"124","N/A","To Place Colorado_Springs","From Satellite Leo_Sat12","No Parent","No Parent"
28 Jan 2024 22:50:34.663,28 Jan 2024 23:02:36.232,721.569,"125","N/A",16.279,-110.346,551.668250,61.533,-113.361,566.496733,38.834,-104.821,-0.000000,38.834,-104.821,-0.000000,"125","N/A","To Place Colorado_Springs","From Satellite Leo_Sat12","No Parent","No Parent"
29 Jan 2024 08:53:54.392,29 Jan 2024 09:02:26.684,512.292,"131","N/A",56.336,-81.591,564.778103,24.214,-83.732,553.573870,38.834,-104.821,-0.000000,38.834,-104.821,-0.000000,"131","N/A","To Place Colorado_Springs","From Satellite Leo_Sat12","No Parent","No Parent"
29 Jan 2024 10:28:08.364,29 Jan 2024 10:40:24.614,736.250,"132","N/A",62.140,-105.214,566.686023,15.967,-108.290,551.606440,38.834,-104.821,-0.000000,38.834,-104.821,-0.000000,"132","N/A","To Place Colorado_Springs","From Satellite Leo_Sat12","No Parent","No Parent"
29 Jan 2024 12:05:48.584,29 Jan 2024 12:12:15.783,387.199,"133","N/A",55.061,-129.698,564.333687,30.795,-131.316,555.572803,38.834,-104.821,-0.000000,38.834,-104.821,-0.000000,"133","N/A","To Place Colorado_Springs","From Satellite Leo_Sat12","No Parent","No Parent"
29 Jan 2024 21:12:56.489,29 Jan 2024 21:23:08.279,611.790,"139","N/A",21.649,-86.856,552.890887,60.006,-89.412,566.008788,38.834,-104.821,-0.000000,38.834,-104.821,-0.000000,"139","N/A","To Place Colorado_Springs","From Satellite Leo_Sat12","No Parent","No Parent"
29 Jan 2024 22:47:18.576,29 Jan 2024 22:59:19.254,720.679,"140","N/A",16.311,-110.513,551.674576,61.509,-113.524,566.489147,38.834,-104.821,-0.000000,38.834,-104.821,-0.000000,"140","N/A","To Place Colorado_Springs","From Satellite Leo_Sat12","No Parent","No Parent"
30 Jan 2024 08:50:36.076,30 Jan 2024 08:59:12.667,516.591,"146","N/A",56.444,-81.748,564.815316,24.052,-83.907,553.529015,38.834,-104.821,-0.000000,38.834,-104.821,-0.000000,"146","N/A","To Place Colorado_Springs","From Satellite Leo_Sat12","No Parent","No Parent"
30 Jan 2024 10:24:51.797,30 Jan 2024 10:37:07.710,735.913,"147","N/A",62.139,-105.378,566.685562,15.987,-108.453,551.610317,38.834,-104.821,-0.000000,38.834,-104.821,-0.000000,"147","N/A","To Place Colorado_Springs","From Satellite Leo_Sat12","No Parent","No Parent"
30 Jan 2024 12:02:34.438,30 Jan 2024 12:08:55.316,380.878,"148","N/A",54.908,-129.873,564.279953,31.039,-131.464,555.652638,38.834,-104.821,-0.000000,38.834,-104.821,-0.000000,"148","N/A","To Place Colorado_Springs","From Satellite Leo_Sat12","No Parent","No Parent"
30 Jan 2024 21:09:38.117,30 Jan 2024 21:19:52.511,614.394,"154","N/A",21.537,-87.013,552.862426,60.057,-89.580,566.025455,38.834,-104.821,-0.000000,38.834,-104.821,-0.000000,"154","N/A","To Place Colorado_Springs","From Satellite Leo_Sat12","No Parent","No Parent"
30 Jan 2024 22:44:02.508,30 Jan 2024 22:56:02.265,719.757,"155","N/A",16.344,-110.679,551.681160,61.484,-113.686,566.481313,38.834,-104.821,-0.000000,38.834,-104.821,-0.000000,"155","N/A","To Place Colorado_Springs","From Satellite Leo_Sat12","No Parent","No Parent"
31 Jan 2024 08:47:17.787,31 Jan 2024 08:55:58.604,520.817,"161","N/A",56.550,-81.905,564.851889,23.893,-84.081,553.485181,38.834,-104.821,-0.000000,38.834,-104.821,-0.000000,"161","N/A","To Place Colorado_Springs","From Satellite Leo_Sat12","No Parent","No Parent"
31 Jan 2024 10:21:35.234,31 Jan 2024 10:33:50.796,735.562,"162","N/A",62.137,-105.543,566.685027,16.007,-108.616,551.614311,38.834,-104.821,-0.000000,38.834,-104.821,-0.000000,"162","N/A","To Place Colorado_Springs","From Satellite Leo_Sat12","No Parent","No Parent"
31 Jan 2024 11:59:20.354,31 Jan 2024 12:05:34.772,374.418,"163","N/A",54.752,-130.048,564.224734,31.287,-131.612,555.734439,38.834,-104.821,-0.000000,38.834,-104.821,-0.000000,"163","N/A","To Place Colorado_Springs","From Satellite Leo_Sat12","No Parent","No Parent"
31 Jan 2024 21:06:19.763,31 Jan 2024 21:16:36.734,616.970,"169","N/A",21.426,-87.170,552.834355,60.108,-89.748,566.041906,38.834,-104.821,-0.000000,38.834,-104.821,-0.000000,"169","N/A","To Place Colorado_Springs","From Satellite Leo_Sat12","No Parent","No Parent"
31 Jan 2024 22:40:46.448,31 Jan 2024 22:52:45.271,718.823,"170","N/A",16.377,-110.845,551.687856,61.459,-113.849,566.473395,38.834,-104.821,-0.000000,38.834,-104.821,-0.000000,"170","N/A","To Place Colorado_Springs","From Satellite Leo_Sat12","No Parent","No Parent"
1 Feb 2024 08:43:59.529,1 Feb 2024 08:52:44.507,524.978,"176","N/A",56.655,-82.063,564.887754,23.736,-84.256,553.442152,38.834,-104.821,-0.000000,38.834,-104.821,-0.000000,"176","N/A","To Place Colorado_Springs","From Satellite Leo_Sat12","No Parent","No Parent"
1 Feb 2024 10:18:18.678,1 Feb 2024 10:30:33.868,735.190,"177","N/A",62.135,-105.707,566.684366,16.028,-108.779,551.618493,38.834,-104.821,-0.000000,38.834,-104.821,-0.000000,"177","N/A","To Place Colorado_Springs","From Satellite Leo_Sat12","No Parent","No Parent"
1 Feb 2024 11:56:06.346,1 Feb 2024 12:02:14.143,367.796,"178","N/A",54.590,-130.223,564.167718,31.541,-131.759,555.818375,38.834,-104.821,-0.000000,38.834,-104.821,-0.000000,"178","N/A","To Place Colorado_Springs","From Satellite Leo_Sat12","No Parent","No Parent"
1 Feb 2024 21:03:01.430,1 Feb 2024 21:13:20.942,619.512,"184","N/A",21.317,-87.327,552.806736,60.158,-89.915,566.058045,38.834,-104.821,-0.000000,38.834,-104.821,-0.000000,"184","N/A","To Place Colorado_Springs","From Satellite Leo_Sat12","No Parent","No Parent"
1 Feb 2024 22:37:30.407,1 Feb 2024 22:49:28.273,717.866,"185","N/A",16.412,-111.012,551.694810,61.434,-114.011,566.465389,38.834,-104.821,-0.000000,38.834,-104.821,-0.000000,"185","N/A","To Place Colorado_Springs","From Satellite Leo_Sat12","No Parent","No Parent"
2 Feb 2024 08:40:41.296,2 Feb 2024 08:49:30.372,529.075,"191","N/A",56.757,-82.220,564.923005,23.582,-84.431,553.400003,38.834,-104.821,-0.000000,38.834,-104.821,-0.000000,"191","N/A","To Place Colorado_Springs","From Satellite Leo_Sat12","No Parent","No Parent"
2 Feb 2024 10:15:02.129,2 Feb 2024 10:27:16.926,734.797,"192","N/A",62.132,-105.871,566.683569,16.050,-108.942,551.622857,38.834,-104.821,-0.000000,38.834,-104.821,-0.000000,"192","N/A","To Place Colorado_Springs","From Satellite Leo_Sat12","No Parent","No Parent"
2 Feb 2024 11:52:52.415,2 Feb 2024 11:58:53.434,361.019,"193","N/A",54.424,-130.398,564.108907,31.800,-131.906,555.904359,38.834,-104.821,-0.000000,38.834,-104.821,-0.000000,"193","N/A","To Place Colorado_Springs","From Satellite Leo_Sat12","No Parent","No Parent"
2 Feb 2024 20:59:43.118,2 Feb 2024 21:10:05.136,622.019,"199","N/A",21.208,-87.484,552.779563,60.207,-90.083,566.073901,38.834,-104.821,-0.000000,38.834,-104.821,-0.000000,"199","N/A","To Place Colorado_Springs","From Satellite Leo_Sat12","No Parent","No Parent"
2 Feb 2024 22:34:14.382,2 Feb 2024 22:46:11.263,716.880,"200","N/A",16.447,-111.179,551.701977,61.408,-114.174,566.457138,38.834,-104.821,-0.000000,38.834,-104.821,-0.000000,"200","N/A","To Place Colorado_Springs","From Satellite Leo_Sat12","No Parent","No Parent"
3 Feb 2024 08:37:23.096,3 Feb 2024 08:46:16.199,533.102,"206","N/A",56.858,-82.378,564.957506,23.430,-84.605,553.358707,38.834,-104.821,-0.000000,38.834,-104.821,-0.000000,"206","N/A","To Place Colorado_Springs","From Satellite Leo_Sat12","No Parent","No Parent"
3 Feb 2024 10:11:45.586,3 Feb 2024 10:23:59.969,734.382,"207","N/A",62.129,-106.036,566.682635,16.073,-109.104,551.627404,38.834,-104.821,-0.000000,38.834,-104.821,-0.000000,"207","N/A","To Place Colorado_Springs","From Satellite Leo_Sat12","No Parent","No Parent"
3 Feb 2024 11:49:38.564,3 Feb 2024 11:55:32.633,354.069,"208","N/A",54.253,-130.574,564.048194,32.064,-132.053,555.992667,38.834,-104.821,-0.000000,38.834,-104.821,-0.000000,"208","N/A","To Place Colorado_Springs","From Satellite Leo_Sat12","No Parent","No Parent"
3 Feb 2024 20:56:24.828,3 Feb 2024 21:06:49.315,624.487,"214","N/A",21.101,-87.641,552.752867,60.255,-90.250,566.089429,38.834,-104.821,-0.000000,38.834,-104.821,-0.000000,"214","N/A","To Place Colorado_Springs","From Satellite Leo_Sat12","No Parent","No Parent"
3 Feb 2024 22:30:58.373,3 Feb 2024 22:42:54.244,715.871,"215","N/A",16.484,-111.345,551.709359,61.381,-114.336,566.448716,38.834,-104.821,-0.000000,38.834,-104.821,-0.000000,"215","N/A","To Place Colorado_Springs","From Satellite Leo_Sat12","No Parent","No Parent"
